objectId,houseNo,name,latitude,longitude,image,largeImage,managerId,imageTag,commId,commName,discount,address,age,houselandtype,houselandtypeShow,priceFirst,totalPrice,areaBuilding,areaLand,isHasBalcony,pingUsed,layout,floor,totalfloor,isParking,parking,tags,threeMonthsClicks,isOff,isSimilar,shareURL,status,kind,uniPrice,objectType,3DVR,Is3Dvr,zipCode,groupCompany,addLayout,totalLayout,isHasVideo,isHasView,city_name,city_code,page,source_url
,0259QS,行情！臨路美墅,23.894462,120.686137,['https://res.sinyi.com.tw/buy/0259QS/smallimg/A.JPG'],https://res.sinyi.com.tw/buy/0259QS/bigimg/A.JPG,,[2],,,-16.6,南投縣南投市嘉和一路,1.7年,"['D', 'E']","['N', 'E']",1880,1568,52.7,22.69,1,52.7,4房3廳4衛,1-4,4,False,,"['3', '4', '2', '18', '19', '14', '100', '107']",184,False,False,https://sinyi.in/o/0259QS/0/3,2,1,,1,True,True,540,1.0,,4房3廳4衛,False,False,南投縣,Nantou-county,1,https://www.sinyi.com.tw/buy/list/Nantou-county/default-desc/1
,45616K,誠售！國姓土地０．９５甲,24.0380572068,120.8592929985,['https://res.sinyi.com.tw/buy/45616K/smallimg/A.JPG'],https://res.sinyi.com.tw/buy/45616K/bigimg/A.JPG,,,,,-86.28,南投縣國姓鄉國姓路,--,['I'],['I'],2660,365,0.0,2807.2,0,-1.0,,,,False,,"['18', '19', '100']",45,False,False,https://sinyi.in/o/45616K/0/3,2,1,,3,False,False,544,1.0,,,False,False,南投縣,Nantou-county,1,https://www.sinyi.com.tw/buy/list/Nantou-county/default-desc/1
,8762HL,南投清境地２１８１坪民宿,24.062595,121.168311,['https://res.sinyi.com.tw/buy/8762HL/smallimg/A.JPG'],https://res.sinyi.com.tw/buy/8762HL/bigimg/A.JPG,,,,,0.0,南投縣仁愛鄉仁和路,25.6年,"['K', 'I']","['K', 'I']",17000,17000,236.22,2181.93,0,236.22,19房1廳19衛,1-3,3,False,,"['7', '13', '100']",1,False,False,https://sinyi.in/o/8762HL/0/3,2,1,,1,False,False,546,3.0,,19房1廳19衛,False,False,南投縣,Nantou-county,1,https://www.sinyi.com.tw/buy/list/Nantou-county/default-desc/1
,7795YP,埔里農栽場,23.987017,120.99954,['https://res.sinyi.com.tw/buy/7795YP/smallimg/A.JPG'],https://res.sinyi.com.tw/buy/7795YP/bigimg/A.JPG,,[2],,,-26.04,南投縣埔里鎮內埔路,2.9年,['K'],['K'],2688,1988,1252.68,1685.23,0,1252.68,1廳,1-1,1,False,,"['15', '14', '100']",51,False,False,https://sinyi.in/o/7795YP/0/3,2,1,,1,False,False,545,1.0,,1廳,False,False,南投縣,Nantou-county,1,https://www.sinyi.com.tw/buy/list/Nantou-county/default-desc/1
,9822QY,草屯富人區別墅,23.97144,120.685289,['https://res.sinyi.com.tw/buy/9822QY/smallimg/A.JPG'],https://res.sinyi.com.tw/buy/9822QY/bigimg/A.JPG,,,,,-8.28,南投縣草屯鎮新富一街,3.7年,['D'],['D'],3380,3100,102.83,40.23,1,102.83,4房4廳6衛,1-5,5,False,,"['1', '4', '5', '2', '16', '18', '19', '100', '107']",355,False,False,https://sinyi.in/o/9822QY/0/3,2,1,,1,True,True,542,1.0,,4房4廳6衛,False,False,南投縣,Nantou-county,1,https://www.sinyi.com.tw/buy/list/Nantou-county/default-desc/1
,0313TJ,南投九九峰視野庭院大別墅,23.980619,120.791166,['https://res.sinyi.com.tw/buy/0313TJ/smallimg/A.JPG'],https://res.sinyi.com.tw/buy/0313TJ/bigimg/A.JPG,,,,,-6.29,南投縣草屯鎮中正路,1.6年,['D'],['D'],2860,2680,106.57,87.87,1,106.58,5房2廳6衛,1-4,4,True,"['9', '9', '9', '9']","['6', '3', '4', '5', '2', '12', '100']",165,False,False,https://sinyi.in/o/0313TJ/0/3,2,1,,1,True,True,542,1.0,,5房2廳6衛,False,False,南投縣,Nantou-county,1,https://www.sinyi.com.tw/buy/list/Nantou-county/default-desc/1
,2714JD,埔里大地坪休憩空間,23.980181,120.946955,['https://res.sinyi.com.tw/buy/2714JD/smallimg/A.JPG'],https://res.sinyi.com.tw/buy/2714JD/bigimg/A.JPG,,,,,-13.07,南投縣埔里鎮房里路,34.0年,['D'],['D'],3980,3460,71.24,604.63,0,71.24,5房2廳3衛,1-2,2,False,,"['7', '6', '5', '2', '100']",125,False,False,https://sinyi.in/o/2714JD/0/3,2,1,,1,True,True,545,1.0,3房5衛1室,8房2廳8衛1室,False,False,南投縣,Nantou-county,1,https://www.sinyi.com.tw/buy/list/Nantou-county/default-desc/1
,5752LF,成功大院●頤居安然環境１,24.037987,120.853734,['https://res.sinyi.com.tw/buy/5752LF/smallimg/A.JPG'],https://res.sinyi.com.tw/buy/5752LF/bigimg/A.JPG,,,,,-6.3,南投縣國姓鄉中興路,2.2年,['D'],['N'],1588,1488,57.86,73.59,1,57.86,4房2廳5衛,1-3,3,False,,"['6', '3', '4', '5', '2', '19', '100']",47,False,False,https://sinyi.in/o/5752LF/0/3,2,1,,1,True,True,544,1.0,,4房2廳5衛,False,False,南投縣,Nantou-county,1,https://www.sinyi.com.tw/buy/list/Nantou-county/default-desc/1
,02259H,南投中寮土地Ｃ開心農場,23.869729007783,120.7952675441,['https://res.sinyi.com.tw/buy/02259H/smallimg/A.JPG'],https://res.sinyi.com.tw/buy/02259H/bigimg/A.JPG,,,,,-34.55,南投縣中寮鄉仙鹿巷,--,['I'],['I'],550,360,0.0,756.25,0,-1.0,,,,False,,['100'],27,False,False,https://sinyi.in/o/02259H/0/3,2,1,,3,False,False,541,1.0,,,False,False,南投縣,Nantou-county,1,https://www.sinyi.com.tw/buy/list/Nantou-county/default-desc/1
,0612NZ,成功大院●雲嶺松居雅境３,24.038083,120.853623,['https://res.sinyi.com.tw/buy/0612NZ/smallimg/A.JPG'],https://res.sinyi.com.tw/buy/0612NZ/bigimg/A.JPG,,,,,-3.6,南投縣國姓鄉中興路,2.2年,['D'],['N'],1388,1338,56.1,42.43,1,56.1,4房2廳5衛,1-3,3,False,,"['6', '3', '4', '5', '2', '19', '100']",31,False,False,https://sinyi.in/o/0612NZ/0/3,2,1,,1,True,True,544,1.0,,4房2廳5衛,False,False,南投縣,Nantou-county,1,https://www.sinyi.com.tw/buy/list/Nantou-county/default-desc/1
,2013KV,成功大院●松嶺靜居雲隱８,24.038291,120.85335,['https://res.sinyi.com.tw/buy/2013KV/smallimg/A.JPG'],https://res.sinyi.com.tw/buy/2013KV/bigimg/A.JPG,,,,,-3.6,南投縣國姓鄉中興路,2.2年,['D'],['N'],1388,1338,56.09,40.98,1,56.09,4房2廳5衛,1-3,3,False,,"['6', '3', '4', '5', '2', '19', '100']",34,False,False,https://sinyi.in/o/2013KV/0/3,2,1,,1,True,True,544,1.0,,4房2廳5衛,False,False,南投縣,Nantou-county,1,https://www.sinyi.com.tw/buy/list/Nantou-county/default-desc/1
,3158VU,草屯北投堡美農地,23.980818,120.658677,['https://res.sinyi.com.tw/buy/3158VU/smallimg/A.JPG'],https://res.sinyi.com.tw/buy/3158VU/bigimg/A.JPG,,,,,-27.73,南投縣草屯鎮史館路,--,['I'],['I'],1410,1019,0.0,352.53,0,-1.0,,,,False,,['100'],22,False,False,https://sinyi.in/o/3158VU/0/3,2,1,,3,False,False,542,1.0,,,False,False,南投縣,Nantou-county,1,https://www.sinyi.com.tw/buy/list/Nantou-county/default-desc/1
,3299ZR,草屯北投段美農地,23.981353,120.658461,['https://res.sinyi.com.tw/buy/3299ZR/smallimg/A.JPG'],https://res.sinyi.com.tw/buy/3299ZR/bigimg/A.JPG,,,,,-27.96,南投縣草屯鎮史館路,--,['I'],['I'],1248,899,0.0,310.97,0,-1.0,,,,False,,['100'],17,False,False,https://sinyi.in/o/3299ZR/0/3,2,1,,3,False,False,542,1.0,,,False,False,南投縣,Nantou-county,1,https://www.sinyi.com.tw/buy/list/Nantou-county/default-desc/1
,4437RL,成功大院●雲靜山居松嶺９,24.038332,120.853309,['https://res.sinyi.com.tw/buy/4437RL/smallimg/A.JPG'],https://res.sinyi.com.tw/buy/4437RL/bigimg/A.JPG,,,,,-3.86,南投縣國姓鄉中興路,1.9年,['D'],['N'],2588,2488,93.35,64.71,1,87.68,4房2廳4衛,1-4,4,False,,"['6', '3', '4', '5', '2', '19', '100']",12,False,False,https://sinyi.in/o/4437RL/0/3,2,1,,1,True,True,544,1.0,,4房2廳4衛,False,False,南投縣,Nantou-county,1,https://www.sinyi.com.tw/buy/list/Nantou-county/default-desc/1
,4928ZU,成功大院●雲嶺松居靜養５,24.038105,120.853577,['https://res.sinyi.com.tw/buy/4928ZU/smallimg/A.JPG'],https://res.sinyi.com.tw/buy/4928ZU/bigimg/A.JPG,,,,,-3.6,南投縣國姓鄉中興路,2.2年,['D'],['N'],1388,1338,56.1,42.55,1,56.1,4房2廳5衛,1-3,3,False,,"['6', '3', '4', '5', '2', '19', '100']",16,False,False,https://sinyi.in/o/4928ZU/0/3,2,1,,1,True,True,544,1.0,,4房2廳5衛,False,False,南投縣,Nantou-county,1,https://www.sinyi.com.tw/buy/list/Nantou-county/default-desc/1
,6670FP,成功大院●山居松嶺雲境２,24.038053,120.853656,['https://res.sinyi.com.tw/buy/6670FP/smallimg/A.JPG'],https://res.sinyi.com.tw/buy/6670FP/bigimg/A.JPG,,,,,-3.6,南投縣國姓鄉中興路,2.2年,['D'],['N'],1388,1338,56.1,43.7,1,56.1,4房2廳5衛,1-3,3,False,,"['6', '3', '4', '5', '2', '19', '100']",11,False,False,https://sinyi.in/o/6670FP/0/3,2,1,,1,True,True,544,1.0,,4房2廳5衛,False,False,南投縣,Nantou-county,1,https://www.sinyi.com.tw/buy/list/Nantou-county/default-desc/1
,8389YU,成功大院●山嶺靜居雲境７,24.0382,120.853465,['https://res.sinyi.com.tw/buy/8389YU/smallimg/A.JPG'],https://res.sinyi.com.tw/buy/8389YU/bigimg/A.JPG,,,,,0.0,南投縣國姓鄉中興路,2.2年,['D'],['N'],1688,1688,56.1,40.01,1,56.1,4房2廳5衛,1-3,3,False,,"['6', '3', '4', '5', '2', '19', '100']",9,False,False,https://sinyi.in/o/8389YU/0/3,2,1,,1,True,True,544,1.0,,4房2廳5衛,False,False,南投縣,Nantou-county,1,https://www.sinyi.com.tw/buy/list/Nantou-county/default-desc/1
,9818RY,成功大院●松嶺雲居慢活６,24.038163,120.853497,['https://res.sinyi.com.tw/buy/9818RY/smallimg/A.JPG'],https://res.sinyi.com.tw/buy/9818RY/bigimg/A.JPG,,,,,-3.6,南投縣國姓鄉中興路,2.2年,['D'],['N'],1388,1338,56.1,40.95,1,56.1,4房2廳5衛,1-3,3,False,,"['6', '3', '4', '5', '2', '19', '100']",27,False,False,https://sinyi.in/o/9818RY/0/3,2,1,,1,True,True,544,1.0,,4房2廳5衛,False,False,南投縣,Nantou-county,1,https://www.sinyi.com.tw/buy/list/Nantou-county/default-desc/1
,2936DL,集集火車站角地,23.826681,120.779282,['https://res.sinyi.com.tw/buy/2936DL/smallimg/A.JPG'],https://res.sinyi.com.tw/buy/2936DL/bigimg/A.JPG,,,,,-9.09,南投縣集集鎮民生路,--,['I'],['I'],2860,2600,0.0,129.57,0,-1.0,,,,False,,"['22', '18', '19', '100', '108']",15,False,False,https://sinyi.in/o/2936DL/0/3,2,1,,3,False,False,552,1.0,,,False,False,南投縣,Nantou-county,1,https://www.sinyi.com.tw/buy/list/Nantou-county/default-desc/1
,5295HQ,稀有！埔里精華地段透天,23.966619,120.977757,['https://res.sinyi.com.tw/buy/5295HQ/smallimg/A.JPG'],https://res.sinyi.com.tw/buy/5295HQ/bigimg/A.JPG,,,,,0.0,南投縣埔里鎮和平東路,38.0年,['D'],['N'],1180,1180,42.78,36.91,0,42.78,4房2廳2衛,1-2,2,False,,"['7', '3', '4', '16', '100', '111']",81,False,False,https://sinyi.in/o/5295HQ/0/3,2,1,,1,True,True,545,1.0,1廳,4房3廳2衛,False,False,南投縣,Nantou-county,1,https://www.sinyi.com.tw/buy/list/Nantou-county/default-desc/1
,31209M,【專任】南投國姓路土地,24.039125211214,120.85598847104,['https://res.sinyi.com.tw/buy/31209M/smallimg/A.JPG'],https://res.sinyi.com.tw/buy/31209M/bigimg/A.JPG,,,,,-47.17,南投縣國姓鄉國姓路,--,['I'],['I'],318,168,0.0,51.23,0,-1.0,,,,False,,"['18', '19', '100', '107']",70,False,False,https://sinyi.in/o/31209M/0/3,2,1,,3,False,False,544,1.0,,,False,False,南投縣,Nantou-county,2,https://www.sinyi.com.tw/buy/list/Nantou-county/default-desc/2
,4977BR,南崗工業區地約８０５坪廠,23.920169,120.662923,['https://res.sinyi.com.tw/buy/4977BR/smallimg/A.JPG'],https://res.sinyi.com.tw/buy/4977BR/bigimg/A.JPG,,,,,-28.57,南投縣南投市仁和路,26.6年,['G'],['G'],35000,25000,1258.87,805.26,0,1165.96,1廳,B1-3,3,False,,"['12', '16', '100', '102']",26,False,False,https://sinyi.in/o/4977BR/0/3,2,1,,1,False,False,540,3.0,,1廳,False,False,南投縣,Nantou-county,2,https://www.sinyi.com.tw/buy/list/Nantou-county/default-desc/2
,0780KR,埔里頂級山莊民宿私人花園,23.960267,120.986202,['https://res.sinyi.com.tw/buy/0780KR/smallimg/A.JPG'],https://res.sinyi.com.tw/buy/0780KR/bigimg/A.JPG,,,,,-13.37,南投縣埔里鎮中心路,19.4年,['D'],['N'],9800,8490,160.08,831.46,1,160.08,8房1廳8衛,1-3,3,False,,"['7', '6', '3', '4', '5', '2', '11', '100']",61,False,False,https://sinyi.in/o/0780KR/0/3,2,1,,1,False,False,545,1.0,3房3.5衛2室,11房1廳11.5衛2室,False,False,南投縣,Nantou-county,2,https://www.sinyi.com.tw/buy/list/Nantou-county/default-desc/2
,7892HR,鋼造大空間，近草屯交流道,24.000219,120.652139,['https://res.sinyi.com.tw/buy/7892HR/smallimg/A.JPG'],https://res.sinyi.com.tw/buy/7892HR/bigimg/A.JPG,,,,,-15.79,南投縣草屯鎮石川路,16.7年,['K'],['K'],3800,3200,4.84,208.73,0,4.84,,1-1,1,True,"['6', '6']","['7', '6', '3', '4', '5', '100']",28,False,False,https://sinyi.in/o/7892HR/0/3,2,1,,1,False,False,542,1.0,3房5廳14衛8室,3房5廳14衛8室,False,False,南投縣,Nantou-county,2,https://www.sinyi.com.tw/buy/list/Nantou-county/default-desc/2
,8691HB,近僑健國小精裝優質透天,23.945377,120.662879,['https://res.sinyi.com.tw/buy/8691HB/smallimg/A.JPG'],https://res.sinyi.com.tw/buy/8691HB/bigimg/A.JPG,,,,,0.0,南投縣南投市彰南路三段,11.1年,['D'],['D'],1498,1498,50.64,36.23,1,50.64,3房2廳4衛1室,1-3,3,False,,"['5', '100']",90,False,False,https://sinyi.in/o/8691HB/0/3,2,1,,1,True,True,540,1.0,,3房2廳4衛1室,False,False,南投縣,Nantou-county,2,https://www.sinyi.com.tw/buy/list/Nantou-county/default-desc/2
,2816ZU,降價！古色古香靜巷透天,23.961977,120.9461,['https://res.sinyi.com.tw/buy/2816ZU/smallimg/A.JPG'],https://res.sinyi.com.tw/buy/2816ZU/bigimg/A.JPG,,,,,-8.36,南投縣埔里鎮桃南路,49.3年,['D'],['N'],598,548,24.68,20.55,0,24.68,3房2廳3衛,1-2,2,False,,"['7', '16', '20', '100']",173,False,False,https://sinyi.in/o/2816ZU/0/3,2,1,,1,True,True,545,1.0,2房1廳2衛,5房3廳5衛,False,False,南投縣,Nantou-county,2,https://www.sinyi.com.tw/buy/list/Nantou-county/default-desc/2
,0001QU,埔里牛尾段雙面臨路農地,23.991563,120.981113,['https://res.sinyi.com.tw/buy/0001QU/smallimg/A.JPG'],https://res.sinyi.com.tw/buy/0001QU/bigimg/A.JPG,,,,,-16.95,南投縣埔里鎮牛尾路,--,['I'],['I'],3598,2988,0.0,982.18,0,-1.0,,,,False,,"['16', '19', '100']",17,False,False,https://sinyi.in/o/0001QU/0/3,2,1,,3,False,False,545,1.0,,,False,False,南投縣,Nantou-county,2,https://www.sinyi.com.tw/buy/list/Nantou-county/default-desc/2
,1916MM,急售！埔里大地坪土地,23.944683,120.950914,['https://res.sinyi.com.tw/buy/1916MM/smallimg/A.JPG'],https://res.sinyi.com.tw/buy/1916MM/bigimg/A.JPG,,,,,-21.8,南投縣埔里鎮水墻巷,8.2年,['I'],['I'],7660,5990,195.49,5107.64,0,195.49,1廳,1-1,1,False,,['100'],11,False,False,https://sinyi.in/o/1916MM/0/3,2,1,,3,False,False,545,1.0,1衛,1廳1衛,False,False,南投縣,Nantou-county,2,https://www.sinyi.com.tw/buy/list/Nantou-county/default-desc/2
,9208JB,埔里牛尾段農地Ｂ,23.991563,120.981113,['https://res.sinyi.com.tw/buy/9208JB/smallimg/A.JPG'],https://res.sinyi.com.tw/buy/9208JB/bigimg/A.JPG,,,,,-13.77,南投縣埔里鎮牛尾路,--,['I'],['I'],1598,1378,0.0,491.09,0,-1.0,,,,False,,"['16', '19', '100']",26,False,False,https://sinyi.in/o/9208JB/0/3,2,1,,3,False,False,545,1.0,,,False,False,南投縣,Nantou-county,2,https://www.sinyi.com.tw/buy/list/Nantou-county/default-desc/2
,30236U,埔里山坡地開心農場,24.038717868527,120.92004192374,['https://res.sinyi.com.tw/buy/30236U/smallimg/A.JPG'],https://res.sinyi.com.tw/buy/30236U/bigimg/A.JPG,,,,,-72.5,南投縣埔里鎮北村路,--,['I'],['I'],3600,990,0.0,1823.17,0,-1.0,,0,0,False,,['100'],35,False,False,https://sinyi.in/o/30236U/0/3,2,1,,3,False,False,545,1.0,,,False,False,南投縣,Nantou-county,2,https://www.sinyi.com.tw/buy/list/Nantou-county/default-desc/2
,8614UB,埔里大地坪獨門獨院豪邸,23.980149,120.959669,['https://res.sinyi.com.tw/buy/8614UB/smallimg/A.JPG'],https://res.sinyi.com.tw/buy/8614UB/bigimg/A.JPG,,,,,0.0,南投縣埔里鎮籃城路,13.7年,['K'],['K'],4480,4480,77.16,415.44,0,71.92,3房2廳3衛,1-2,2,False,,"['7', '6', '5', '2', '100']",51,False,False,https://sinyi.in/o/8614UB/0/3,2,1,,1,True,True,545,1.0,,3房2廳3衛,False,False,南投縣,Nantou-county,2,https://www.sinyi.com.tw/buy/list/Nantou-county/default-desc/2
,9168ZS,埔里牛尾段農地Ａ,23.991563,120.981113,['https://res.sinyi.com.tw/buy/9168ZS/smallimg/A.JPG'],https://res.sinyi.com.tw/buy/9168ZS/bigimg/A.JPG,,,,,-11.51,南投縣埔里鎮牛尾路,--,['I'],['I'],1998,1768,0.0,491.09,0,-1.0,,,,False,,"['16', '19', '100']",6,False,False,https://sinyi.in/o/9168ZS/0/3,2,1,,3,False,False,545,1.0,,,False,False,南投縣,Nantou-county,2,https://www.sinyi.com.tw/buy/list/Nantou-county/default-desc/2
,04288Y,南投中寮土地Ａ視野空氣好,23.870970118929,120.7963458756,['https://res.sinyi.com.tw/buy/04288Y/smallimg/A.JPG'],https://res.sinyi.com.tw/buy/04288Y/bigimg/A.JPG,,,,,-12.56,南投縣中寮鄉仙鹿巷,--,['I'],['I'],3980,3480,0.0,6164.95,0,-1.0,,0,0,False,,['100'],5,False,False,https://sinyi.in/o/04288Y/0/3,2,1,,3,False,False,541,1.0,,,False,False,南投縣,Nantou-county,2,https://www.sinyi.com.tw/buy/list/Nantou-county/default-desc/2
,5627XU,埔里美景合法民宿,23.965026,120.947478,['https://res.sinyi.com.tw/buy/5627XU/smallimg/A.JPG'],https://res.sinyi.com.tw/buy/5627XU/bigimg/A.JPG,,,,,-4.45,南投縣埔里鎮桃南路,21.0年,['D'],['N'],8988,8588,92.22,480.15,0,80.49,7房7衛,1-2,2,False,,"['7', '6', '3', '4', '5', '2', '16', '100', '106']",190,False,False,https://sinyi.in/o/5627XU/0/3,2,1,,1,False,False,545,1.0,4房3廳6衛1室,11房3廳13衛1室,False,False,南投縣,Nantou-county,2,https://www.sinyi.com.tw/buy/list/Nantou-county/default-desc/2
,61723Y,稀有集集萬坪農地釋出,23.827054863415,120.76944214193,['https://res.sinyi.com.tw/buy/61723Y/smallimg/A.JPG'],https://res.sinyi.com.tw/buy/61723Y/bigimg/A.JPG,,,,,-52.0,南投縣集集鎮山腳巷,--,['I'],['I'],5000,2400,0.0,12251.79,0,-1.0,,,,False,,['100'],2,False,False,https://sinyi.in/o/61723Y/0/3,2,1,,3,False,False,552,1.0,,,False,False,南投縣,Nantou-county,2,https://www.sinyi.com.tw/buy/list/Nantou-county/default-desc/2
,73152V,中山路一段獨棟便利透天,23.976694580224,120.98704786678,['https://res.sinyi.com.tw/buy/73152V/smallimg/A.JPG'],https://res.sinyi.com.tw/buy/73152V/bigimg/A.JPG,,,,,0.0,南投縣埔里鎮中山路一段,19.6年,['K'],['K'],6000,6000,156.86,660.81,1,152.36,9房5廳9衛2室,1-3,3,False,,"['7', '6', '3', '4', '5', '2', '19', '100']",223,False,False,https://sinyi.in/o/73152V/0/3,2,1,,1,False,False,545,1.0,2房2衛,11房5廳11衛2室,False,False,南投縣,Nantou-county,2,https://www.sinyi.com.tw/buy/list/Nantou-county/default-desc/2
,2550XT,免整理！國道旁方正農場,23.904409,120.701062,['https://res.sinyi.com.tw/buy/2550XT/smallimg/A.JPG'],https://res.sinyi.com.tw/buy/2550XT/bigimg/A.JPG,,,,,-10.33,南投縣南投市南鄉路,--,['I'],['I'],658,590,0.0,298.64,0,-1.0,,,,False,,['100'],26,False,False,https://sinyi.in/o/2550XT/0/3,2,1,,3,False,False,540,1.0,,,False,False,南投縣,Nantou-county,2,https://www.sinyi.com.tw/buy/list/Nantou-county/default-desc/2
,5712SR,草屯優質農地,23.978808,120.664397,['https://res.sinyi.com.tw/buy/5712SR/smallimg/A.JPG'],https://res.sinyi.com.tw/buy/5712SR/bigimg/A.JPG,,,,,-12.17,南投縣草屯鎮史館路,--,['I'],['I'],3188,2800,0.0,783.17,0,-1.0,,,,False,,"['18', '100', '107']",31,False,False,https://sinyi.in/o/5712SR/0/3,2,1,,3,False,False,542,1.0,,,False,False,南投縣,Nantou-county,2,https://www.sinyi.com.tw/buy/list/Nantou-county/default-desc/2
,6636HX,南投竹山地５０７４坪民宿,23.754217,120.707605,['https://res.sinyi.com.tw/buy/6636HX/smallimg/A.JPG'],https://res.sinyi.com.tw/buy/6636HX/bigimg/A.JPG,,,,,0.0,南投縣竹山鎮鹿山路,29.5年,"['K', 'I']","['K', 'I']",4580,4580,55.88,5074.62,1,55.89,3房1廳3衛,1-2,2,False,,"['7', '6', '4', '5', '2', '11', '100']",23,False,False,https://sinyi.in/o/6636HX/0/3,2,1,,1,False,False,557,3.0,,3房1廳3衛,False,False,南投縣,Nantou-county,2,https://www.sinyi.com.tw/buy/list/Nantou-county/default-desc/2
,7272DD,國姓土地上有度假屋,24.023488,120.847302,['https://res.sinyi.com.tw/buy/7272DD/smallimg/A.JPG'],https://res.sinyi.com.tw/buy/7272DD/bigimg/A.JPG,,,,,0.0,南投縣國姓鄉中正路二段,--,['I'],['I'],898,898,0.0,55.96,0,-1.0,,1,0,False,,[],3,False,False,https://sinyi.in/o/7272DD/0/3,2,1,,3,False,False,544,1.0,,,False,False,南投縣,Nantou-county,2,https://www.sinyi.com.tw/buy/list/Nantou-county/default-desc/2
,97427N,南投魚池鄉土地釋出,23.877909148102,120.93147286768,['https://res.sinyi.com.tw/buy/97427N/smallimg/A.JPG'],https://res.sinyi.com.tw/buy/97427N/bigimg/A.JPG,,,,,-10.07,南投縣魚池鄉瓊文巷,--,"['I', 'D']","['I', 'N']",2980,2680,0.0,592.61,0,-1.0,,1-2,0,False,,['100'],44,False,False,https://sinyi.in/o/97427N/0/3,2,1,,3,False,False,555,1.0,,,False,False,南投縣,Nantou-county,3,https://www.sinyi.com.tw/buy/list/Nantou-county/default-desc/3
,2427HR,名間土地農地,23.854338,120.704518,['https://res.sinyi.com.tw/buy/2427HR/smallimg/A.JPG'],https://res.sinyi.com.tw/buy/2427HR/bigimg/A.JPG,,,,,0.0,南投縣名間鄉山腳巷,--,['I'],['I'],3300,3300,0.0,1647.02,0,-1.0,,,,False,,"['19', '13']",6,False,False,https://sinyi.in/o/2427HR/0/3,2,1,,3,False,False,551,1.0,,,False,False,南投縣,Nantou-county,3,https://www.sinyi.com.tw/buy/list/Nantou-county/default-desc/3
,5802QB,中興新村五叉路口角地,23.928326,120.691784,['https://res.sinyi.com.tw/buy/5802QB/smallimg/A.JPG'],https://res.sinyi.com.tw/buy/5802QB/bigimg/A.JPG,,,,,-11.63,南投縣南投市中興路,--,['I'],['I'],2580,2280,0.0,167.41,0,-1.0,,1-1,1,False,,"['19', '100']",29,False,False,https://sinyi.in/o/5802QB/0/3,2,1,,3,False,False,540,1.0,1廳1衛,1廳1衛,False,False,南投縣,Nantou-county,3,https://www.sinyi.com.tw/buy/list/Nantou-county/default-desc/3
,8191CP,降價！草屯大地坪土地,24.008240241274,120.65920209406,['https://res.sinyi.com.tw/buy/8191CP/smallimg/A.JPG'],https://res.sinyi.com.tw/buy/8191CP/bigimg/A.JPG,,,,,-11.27,南投縣草屯鎮加老東路,--,['I'],['I'],3255,2888,0.0,651.59,0,-1.0,,,,False,,['100'],18,False,False,https://sinyi.in/o/8191CP/0/3,2,1,,3,False,False,542,1.0,,,False,False,南投縣,Nantou-county,3,https://www.sinyi.com.tw/buy/list/Nantou-county/default-desc/3
,7004UV,全新加蓋電梯別墅①,23.966356,120.683611,['https://res.sinyi.com.tw/buy/7004UV/smallimg/A.JPG'],https://res.sinyi.com.tw/buy/7004UV/bigimg/A.JPG,,,,,0.0,南投縣草屯鎮正義街,1.1年,['D'],['D'],3380,3380,85.41,45.68,1,77.97,4房3廳5衛,1-3,3,False,,"['7', '4', '5', '2', '16', '18', '19', '107']",167,False,False,https://sinyi.in/o/7004UV/0/3,2,1,,1,False,False,542,1.0,,4房3廳5衛,False,False,南投縣,Nantou-county,3,https://www.sinyi.com.tw/buy/list/Nantou-county/default-desc/3
,8440NL,全新加蓋電梯別墅②,23.966351,120.683676,['https://res.sinyi.com.tw/buy/8440NL/smallimg/A.JPG'],https://res.sinyi.com.tw/buy/8440NL/bigimg/A.JPG,,,,,0.0,南投縣草屯鎮正義街,1.1年,['D'],['D'],3250,3250,86.49,41.14,1,78.96,4房3廳5衛,1-3,3,False,,"['7', '4', '5', '2', '16', '18', '107', '111']",86,False,False,https://sinyi.in/o/8440NL/0/3,2,1,,1,False,False,542,1.0,,4房3廳5衛,False,False,南投縣,Nantou-county,3,https://www.sinyi.com.tw/buy/list/Nantou-county/default-desc/3
,8614ZH,南投草屯地約１３３１坪廠,23.990932,120.687637,['https://res.sinyi.com.tw/buy/8614ZH/smallimg/A.JPG'],https://res.sinyi.com.tw/buy/8614ZH/bigimg/A.JPG,,,,,0.0,南投縣草屯鎮中正路,57.5年,['G'],['G'],33293,33293,200.73,1331.72,0,200.73,1廳2衛,1-1,1,False,,"['7', '16', '19', '100', '110']",15,False,False,https://sinyi.in/o/8614ZH/0/3,2,1,,1,False,False,542,3.0,1衛,1廳3衛,False,False,南投縣,Nantou-county,3,https://www.sinyi.com.tw/buy/list/Nantou-county/default-desc/3
,2403JJ,草屯９６１坪乙種工業廠房,23.965043,120.678839,['https://res.sinyi.com.tw/buy/2403JJ/smallimg/A.JPG'],https://res.sinyi.com.tw/buy/2403JJ/bigimg/A.JPG,,,,,0.0,南投縣草屯鎮太平路一段,44.7年,['G'],['G'],26800,26800,290.69,961.95,0,290.69,5房5廳7衛2室,1-4,4,False,,"['2', '100', '102', '111']",14,False,False,https://sinyi.in/o/2403JJ/0/3,2,1,,1,False,False,542,1.0,1廳,5房6廳7衛2室,False,False,南投縣,Nantou-county,3,https://www.sinyi.com.tw/buy/list/Nantou-county/default-desc/3
,3401NH,南崗工業區乙工廠房,23.936733,120.661874,['https://res.sinyi.com.tw/buy/3401NH/smallimg/A.JPG'],https://res.sinyi.com.tw/buy/3401NH/bigimg/A.JPG,,,,,30.0,南投縣南投市永興路,17.5年,['G'],['G'],100000,130000,6096.46,2977.14,0,5602.25,6廳,B1-4,4,False,,"['7', '100', '102']",23,False,False,https://sinyi.in/o/3401NH/0/3,2,1,,1,False,False,540,3.0,,6廳,False,False,南投縣,Nantou-county,3,https://www.sinyi.com.tw/buy/list/Nantou-county/default-desc/3
,5137DB,專任南投先驅商業黃金地,23.755322,120.681407,['https://res.sinyi.com.tw/buy/5137DB/smallimg/A.JPG'],https://res.sinyi.com.tw/buy/5137DB/bigimg/A.JPG,,,,,0.0,南投縣竹山鎮集山路三段,--,['I'],['I'],1580,1580,0.0,68.37,0,-1.0,,,,False,,"['18', '19', '100', '107']",8,False,False,https://sinyi.in/o/5137DB/0/3,2,1,,3,False,False,557,1.0,,,False,False,南投縣,Nantou-county,3,https://www.sinyi.com.tw/buy/list/Nantou-county/default-desc/3
,5367DR,南投草屯約２０９６坪土地,23.978614558848,120.70247685867,['https://res.sinyi.com.tw/buy/5367DR/smallimg/A.JPG'],https://res.sinyi.com.tw/buy/5367DR/bigimg/A.JPG,,,,,0.0,南投縣草屯鎮中正路,18.7年,['I'],['I'],14500,14500,82.6,2096.06,0,82.6,2廳,1-1,1,False,,"['18', '19', '100', '107']",8,False,False,https://sinyi.in/o/5367DR/0/3,2,1,,3,False,False,542,3.0,,2廳,False,False,南投縣,Nantou-county,3,https://www.sinyi.com.tw/buy/list/Nantou-county/default-desc/3
,9706DL,竹山區方正工業地,23.769129,120.702936,['https://res.sinyi.com.tw/buy/9706DL/smallimg/A.JPG'],https://res.sinyi.com.tw/buy/9706DL/bigimg/A.JPG,,,,,0.0,南投縣竹山鎮延平二路,--,['I'],['I'],9277,9277,0.0,579.83,0,-1.0,,,,False,,"['19', '100']",13,False,False,https://sinyi.in/o/9706DL/0/3,2,1,,3,False,False,557,1.0,,,False,False,南投縣,Nantou-county,3,https://www.sinyi.com.tw/buy/list/Nantou-county/default-desc/3
,6158XF,埔里轉運站旁商業用地,23.964122,120.969568,['https://res.sinyi.com.tw/buy/6158XF/smallimg/A.JPG'],https://res.sinyi.com.tw/buy/6158XF/bigimg/A.JPG,,,,,0.0,南投縣埔里鎮東華路,--,['I'],['I'],27452,27452,0.0,722.42,0,-1.0,,,,False,,"['18', '19', '100', '107']",12,False,False,https://sinyi.in/o/6158XF/0/3,2,1,,3,False,False,545,1.0,,,False,False,南投縣,Nantou-county,3,https://www.sinyi.com.tw/buy/list/Nantou-county/default-desc/3
,7241LN,誠售！南投國姓鄉方正角地,24.066181,120.939708,['https://res.sinyi.com.tw/buy/7241LN/smallimg/A.JPG'],https://res.sinyi.com.tw/buy/7241LN/bigimg/A.JPG,,,,,0.0,南投縣國姓鄉北原路,--,['I'],['I'],2800,2800,0.0,825.67,0,-1.0,,,,False,,['100'],10,False,False,https://sinyi.in/o/7241LN/0/3,2,1,,3,False,False,544,1.0,,,False,False,南投縣,Nantou-county,3,https://www.sinyi.com.tw/buy/list/Nantou-county/default-desc/3
,8041NQ,馬年吉祥臨路方正行情農地,23.97182,120.672828,['https://res.sinyi.com.tw/buy/8041NQ/smallimg/A.JPG'],https://res.sinyi.com.tw/buy/8041NQ/bigimg/A.JPG,,,,,0.0,南投縣草屯鎮碧山路,--,['I'],['I'],1888,1888,0.0,544.5,0,-1.0,,,,False,,"['100', '111']",5,False,False,https://sinyi.in/o/8041NQ/0/3,2,1,,3,False,False,542,1.0,,,False,False,南投縣,Nantou-county,3,https://www.sinyi.com.tw/buy/list/Nantou-county/default-desc/3
,83484G,南投近日月潭方正美地２,23.821054330336,120.90294490433,['https://res.sinyi.com.tw/buy/83484G/smallimg/A.JPG'],https://res.sinyi.com.tw/buy/83484G/bigimg/A.JPG,,,,,0.0,南投縣魚池鄉平和巷,--,['I'],['I'],2619,2619,0.0,304.52,0,-1.0,,,,False,,['100'],15,False,False,https://sinyi.in/o/83484G/0/3,2,1,,3,False,False,555,1.0,,,False,False,南投縣,Nantou-county,3,https://www.sinyi.com.tw/buy/list/Nantou-county/default-desc/3
,98608Y,南投中寮土地Ｂ適露營區,23.86989578641,120.7947257701,['https://res.sinyi.com.tw/buy/98608Y/smallimg/A.JPG'],https://res.sinyi.com.tw/buy/98608Y/bigimg/A.JPG,,,,,0.0,南投縣中寮鄉仙鹿巷,--,['I'],['I'],1260,1260,0.0,1620.8,0,-1.0,,0,0,False,,['100'],18,False,False,https://sinyi.in/o/98608Y/0/3,2,1,,3,False,False,541,1.0,,,False,False,南投縣,Nantou-county,3,https://www.sinyi.com.tw/buy/list/Nantou-county/default-desc/3
,2867ZZ,鳥嘴潭人工湖農地,23.995056,120.732052,['https://res.sinyi.com.tw/buy/2867ZZ/smallimg/A.JPG'],https://res.sinyi.com.tw/buy/2867ZZ/bigimg/A.JPG,,,,,0.0,南投縣草屯鎮玉屏巷,--,['I'],['I'],2891,2891,0.0,803.14,0,-1.0,,,,False,,"['16', '100']",15,False,False,https://sinyi.in/o/2867ZZ/0/3,2,1,,3,False,False,542,1.0,,,False,False,南投縣,Nantou-county,3,https://www.sinyi.com.tw/buy/list/Nantou-county/default-desc/3
,4250CR,急售埔里約２０米面寬店面,23.967047,120.967681,['https://res.sinyi.com.tw/buy/4250CR/smallimg/A.JPG'],https://res.sinyi.com.tw/buy/4250CR/bigimg/A.JPG,,,,,0.0,南投縣埔里鎮西安路一段,46.2年,['E'],['E'],7500,7500,529.04,160.1,0,475.76,29房2廳18衛21室,B1-4,4,False,,"['16', '18', '19', '100', '107']",70,False,False,https://sinyi.in/o/4250CR/0/3,2,1,,1,False,False,545,1.0,6房2廳7衛,35房4廳25衛21室,False,False,南投縣,Nantou-county,3,https://www.sinyi.com.tw/buy/list/Nantou-county/default-desc/3
,76027Z,清境農場民宿,24.037752311708,121.15693625353,['https://res.sinyi.com.tw/buy/76027Z/smallimg/A.JPG'],https://res.sinyi.com.tw/buy/76027Z/bigimg/A.JPG,,,,,0.0,南投縣仁愛鄉壽亭巷,30.2年,['K'],['K'],15000,15000,146.37,1403.6,0,146.37,14房2廳14衛2室,1-2,2,False,,"['6', '5', '16', '100']",40,False,False,https://sinyi.in/o/76027Z/0/3,2,1,,1,False,False,546,1.0,22房22衛6室,36房2廳36衛8室,False,False,南投縣,Nantou-county,3,https://www.sinyi.com.tw/buy/list/Nantou-county/default-desc/3
,2810NQ,草屯約１１０７７坪土地,23.971896,120.694401,['https://res.sinyi.com.tw/buy/2810NQ/smallimg/A.JPG'],https://res.sinyi.com.tw/buy/2810NQ/bigimg/A.JPG,,,,,0.0,南投縣草屯鎮富林路一段,--,['I'],['I'],28578,28578,0.0,11077.04,0,-1.0,,,,False,,"['100', '111']",8,False,False,https://sinyi.in/o/2810NQ/0/3,2,1,,3,False,False,542,1.0,,,False,False,南投縣,Nantou-county,4,https://www.sinyi.com.tw/buy/list/Nantou-county/default-desc/4
,3628QD,埔里鎮甲種建築用地,23.944560300305,120.96940123011,['https://res.sinyi.com.tw/buy/3628QD/smallimg/A.JPG'],https://res.sinyi.com.tw/buy/3628QD/bigimg/A.JPG,,,,,-5.25,南投縣埔里鎮水頭路,--,['I'],['I'],800,758,0.0,107.54,0,-1.0,,,,False,,['100'],77,False,False,https://sinyi.in/o/3628QD/0/3,2,1,,3,False,False,545,1.0,,,False,False,南投縣,Nantou-county,4,https://www.sinyi.com.tw/buy/list/Nantou-county/default-desc/4
,1321LF,南崗工業大廠房,23.927258,120.668302,['https://res.sinyi.com.tw/buy/1321LF/smallimg/A.JPG'],https://res.sinyi.com.tw/buy/1321LF/bigimg/A.JPG,,,,,0.0,南投縣南投市南崗三路,47.1年,['G'],['G'],182000,182000,2699.39,7182.87,0,2601.08,5房1廳5衛5室,B1-1,1,False,,"['6', '5', '12', '15', '16', '19', '100']",32,False,False,https://sinyi.in/o/1321LF/0/3,2,1,,1,False,False,540,3.0,,5房1廳5衛5室,False,False,南投縣,Nantou-county,4,https://www.sinyi.com.tw/buy/list/Nantou-county/default-desc/4
,2666LC,吃市！敦和財神燙金大店面,23.982011,120.683227,['https://res.sinyi.com.tw/buy/2666LC/smallimg/A.JPG'],https://res.sinyi.com.tw/buy/2666LC/bigimg/A.JPG,,,,,0.0,南投縣草屯鎮中山街,50.5年,"['E', 'D']","['E', 'N']",2800,2800,55.58,40.23,0,55.58,5房1廳1衛,1-3,3,False,,"['7', '3', '4', '5', '18', '19', '107']",25,False,False,https://sinyi.in/o/2666LC/0/3,2,1,,1,False,False,542,1.0,5房3廳4衛,10房4廳5衛,False,False,南投縣,Nantou-county,4,https://www.sinyi.com.tw/buy/list/Nantou-county/default-desc/4
,4076AJ,南投集集山坡地保育區土地,23.84034,120.74884,['https://res.sinyi.com.tw/buy/4076AJ/smallimg/A.JPG'],https://res.sinyi.com.tw/buy/4076AJ/bigimg/A.JPG,,,,,-15.58,南投縣集集鎮大石巷,--,['I'],['I'],199,168,0.0,336.8,0,-1.0,,,,False,,['16'],16,False,False,https://sinyi.in/o/4076AJ/0/3,2,1,,3,False,False,552,1.0,,,False,False,南投縣,Nantou-county,4,https://www.sinyi.com.tw/buy/list/Nantou-county/default-desc/4
,6540PY,竹山工業區角間廠房,23.769707,120.703579,['https://res.sinyi.com.tw/buy/6540PY/smallimg/A.JPG'],https://res.sinyi.com.tw/buy/6540PY/bigimg/A.JPG,,,,,-7.39,南投縣竹山鎮延平二路,49.2年,"['G', 'I']","['G', 'I']",10758,9963,156.0,603.81,0,98.39,1廳6衛,1-2,2,False,,"['2', '16', '19', '100']",17,False,False,https://sinyi.in/o/6540PY/0/3,2,1,,1,False,False,557,3.0,,1廳6衛,False,False,南投縣,Nantou-county,4,https://www.sinyi.com.tw/buy/list/Nantou-county/default-desc/4
,0102BJ,草屯加老臨路美地Ｂ,24.001828,120.661672,['https://res.sinyi.com.tw/buy/0102BJ/smallimg/A.JPG'],https://res.sinyi.com.tw/buy/0102BJ/bigimg/A.JPG,,,,,0.0,南投縣草屯鎮芬草路三段,--,['I'],['I'],6688,6688,0.0,885.91,0,-1.0,,0,0,False,,[],8,False,False,https://sinyi.in/o/0102BJ/0/3,2,1,,3,False,False,542,1.0,,,False,False,南投縣,Nantou-county,4,https://www.sinyi.com.tw/buy/list/Nantou-county/default-desc/4
,8130KD,草屯加老臨路美地Ａ,24.001641,120.661544,['https://res.sinyi.com.tw/buy/8130KD/smallimg/A.JPG'],https://res.sinyi.com.tw/buy/8130KD/bigimg/A.JPG,,,,,0.0,南投縣草屯鎮加老路,--,['I'],['I'],2688,2688,0.0,106.02,0,-1.0,,0,0,False,,[],9,False,False,https://sinyi.in/o/8130KD/0/3,2,1,,3,False,False,542,1.0,,,False,False,南投縣,Nantou-county,4,https://www.sinyi.com.tw/buy/list/Nantou-county/default-desc/4
,2010LS,南投草屯開心農場,23.984106,120.668003,['https://res.sinyi.com.tw/buy/2010LS/smallimg/A.JPG'],https://res.sinyi.com.tw/buy/2010LS/bigimg/A.JPG,,,,,0.0,南投縣草屯鎮北投路,--,['I'],['I'],7619,7619,0.0,1437.48,0,-1.0,,,,False,,['100'],3,False,False,https://sinyi.in/o/2010LS/0/3,2,1,,3,False,False,542,3.0,,,False,False,南投縣,Nantou-county,4,https://www.sinyi.com.tw/buy/list/Nantou-county/default-desc/4
,11061Z,中寮土地Ｂ☀️,23.882488,120.756968,['https://res.sinyi.com.tw/buy/11061Z/smallimg/A.JPG'],https://res.sinyi.com.tw/buy/11061Z/bigimg/A.JPG,,,,,0.0,南投縣中寮鄉永平路,--,['I'],['I'],438,438,0.0,398.71,0,-1.0,,,,False,,['100'],3,False,False,https://sinyi.in/o/11061Z/0/3,2,1,,3,False,False,541,1.0,,,False,False,南投縣,Nantou-county,4,https://www.sinyi.com.tw/buy/list/Nantou-county/default-desc/4
,9376XT,風光明媚透天別墅,23.830169,120.784277,['https://res.sinyi.com.tw/buy/9376XT/smallimg/A.JPG'],https://res.sinyi.com.tw/buy/9376XT/bigimg/A.JPG,,,,,0.0,南投縣集集鎮初中街,1.2年,['D'],['N'],1680,1680,59.31,30.53,1,59.3,5房2廳5衛1室,1-4,4,False,,"['7', '6', '3', '4', '5', '2', '18', '19', '20']",39,False,False,https://sinyi.in/o/9376XT/0/3,2,1,,1,False,False,552,1.0,,5房2廳5衛1室,False,False,南投縣,Nantou-county,4,https://www.sinyi.com.tw/buy/list/Nantou-county/default-desc/4
,0362TG,工業區臨路廠房,23.934389,120.666432,['https://res.sinyi.com.tw/buy/0362TG/smallimg/A.JPG'],https://res.sinyi.com.tw/buy/0362TG/bigimg/A.JPG,,,,,2.89,南投縣南投市中華路,46.8年,['G'],['G'],16000,16462,274.73,633.19,0,262.1,3廳2衛,B1-2,2,False,,"['7', '3', '4', '5', '100', '111']",18,False,False,https://sinyi.in/o/0362TG/0/3,2,1,,1,False,False,540,1.0,,3廳2衛,False,False,南投縣,Nantou-county,4,https://www.sinyi.com.tw/buy/list/Nantou-county/default-desc/4
,7934CX,草屯農地１,23.965958,120.661581,['https://res.sinyi.com.tw/buy/7934CX/smallimg/A.JPG'],https://res.sinyi.com.tw/buy/7934CX/bigimg/A.JPG,,,,,0.0,南投縣草屯鎮碧峰路,--,['I'],['I'],2500,2500,0.0,453.75,0,-1.0,,,,False,,"['100', '111']",7,False,False,https://sinyi.in/o/7934CX/0/3,2,1,,3,False,False,542,1.0,,,False,False,南投縣,Nantou-county,4,https://www.sinyi.com.tw/buy/list/Nantou-county/default-desc/4
,8715BR,中寮土地Ａ☀️,23.882565,120.756444,['https://res.sinyi.com.tw/buy/8715BR/smallimg/A.JPG'],https://res.sinyi.com.tw/buy/8715BR/bigimg/A.JPG,,,,,0.0,南投縣中寮鄉永平路,--,['I'],['I'],88,88,0.0,80.26,0,-1.0,,,,False,,['100'],28,False,False,https://sinyi.in/o/8715BR/0/3,2,1,,3,False,False,541,1.0,,,False,False,南投縣,Nantou-county,4,https://www.sinyi.com.tw/buy/list/Nantou-county/default-desc/4
,1071NR,南投草屯溫馨農場,23.988752,120.666661,['https://res.sinyi.com.tw/buy/1071NR/smallimg/A.JPG'],https://res.sinyi.com.tw/buy/1071NR/bigimg/A.JPG,,,,,0.0,南投縣草屯鎮史館路文昌巷,--,['I'],['I'],5888,5888,0.0,1102.31,0,-1.0,,,,False,,['100'],3,False,False,https://sinyi.in/o/1071NR/0/3,2,1,,3,False,False,542,3.0,,,False,False,南投縣,Nantou-county,4,https://www.sinyi.com.tw/buy/list/Nantou-county/default-desc/4
,2821KD,埔里稀有農地,24.022656,120.919047,['https://res.sinyi.com.tw/buy/2821KD/smallimg/A.JPG'],https://res.sinyi.com.tw/buy/2821KD/bigimg/A.JPG,,,,,0.0,南投縣埔里鎮合成巷,--,['I'],['I'],670,670,0.0,838.83,0,-1.0,,,,False,,"['19', '100']",22,False,False,https://sinyi.in/o/2821KD/0/3,2,1,,3,False,False,545,1.0,,,False,False,南投縣,Nantou-county,4,https://www.sinyi.com.tw/buy/list/Nantou-county/default-desc/4
,3363XF,埔里市區臨路透店,23.959786,120.968402,['https://res.sinyi.com.tw/buy/3363XF/smallimg/A.JPG'],https://res.sinyi.com.tw/buy/3363XF/bigimg/A.JPG,,,,,0.0,南投縣埔里鎮南興街,38.0年,"['E', 'D']","['E', 'N']",1880,1880,59.35,47.8,0,54.34,3房1廳4衛1室,1-2,2,False,,"['7', '3', '4', '5', '16', '18', '19', '107']",44,False,False,https://sinyi.in/o/3363XF/0/3,2,1,,1,False,False,545,1.0,4房1廳1.5衛2室,7房2廳5.5衛3室,False,False,南投縣,Nantou-county,4,https://www.sinyi.com.tw/buy/list/Nantou-county/default-desc/4
,8422ZB,草屯農地屋主惜售出價談,23.972418,120.728471,['https://res.sinyi.com.tw/buy/8422ZB/smallimg/A.JPG'],https://res.sinyi.com.tw/buy/8422ZB/bigimg/A.JPG,,,,,10.32,南投縣草屯鎮南坪路,--,['I'],['I'],1666,1838,0.0,828.66,0,-1.0,,,,False,,"['19', '100']",10,False,False,https://sinyi.in/o/8422ZB/0/3,2,1,,3,False,False,542,1.0,,,False,False,南投縣,Nantou-county,4,https://www.sinyi.com.tw/buy/list/Nantou-county/default-desc/4
,5230UH,埔里大地坪莊園清幽雅居,23.958781,120.985027,['https://res.sinyi.com.tw/buy/5230UH/smallimg/A.JPG'],https://res.sinyi.com.tw/buy/5230UH/bigimg/A.JPG,,,,,0.0,南投縣埔里鎮中心路,16.0年,['D'],['N'],4800,4800,72.18,382.53,1,72.18,4房1廳1衛,1-2,2,False,,"['7', '6', '3', '4', '5', '2']",123,False,False,https://sinyi.in/o/5230UH/0/3,2,1,,1,False,False,545,1.0,1房2廳3衛,5房3廳4衛,False,False,南投縣,Nantou-county,4,https://www.sinyi.com.tw/buy/list/Nantou-county/default-desc/4
,6610XQ,國姓開心農地,23.981443,120.890753,['https://res.sinyi.com.tw/buy/6610XQ/smallimg/A.JPG'],https://res.sinyi.com.tw/buy/6610XQ/bigimg/A.JPG,,,,,0.0,南投縣國姓鄉中正路四段,--,['I'],['I'],850,850,0.0,806.77,0,-1.0,,,,False,,['100'],3,False,False,https://sinyi.in/o/6610XQ/0/3,2,1,,3,False,False,544,1.0,,,False,False,南投縣,Nantou-county,4,https://www.sinyi.com.tw/buy/list/Nantou-county/default-desc/4
,9224XX,你的退休人生在這裡,23.984008,120.812646,['https://res.sinyi.com.tw/buy/9224XX/smallimg/A.JPG'],https://res.sinyi.com.tw/buy/9224XX/bigimg/A.JPG,,,,,0.0,南投縣草屯鎮山茶巷,--,['I'],['I'],1680,1680,0.0,1164.59,0,-1.0,,1-2,2,False,,['100'],54,False,False,https://sinyi.in/o/9224XX/0/3,2,1,,3,False,False,542,1.0,4房2廳3衛1室,4房2廳3衛1室,False,False,南投縣,Nantou-county,5,https://www.sinyi.com.tw/buy/list/Nantou-county/default-desc/5
,1060WV,已申請建築線乙種用地,23.990944,120.716587,['https://res.sinyi.com.tw/buy/1060WV/smallimg/A.JPG'],https://res.sinyi.com.tw/buy/1060WV/bigimg/A.JPG,,,,,-13.7,南投縣草屯鎮玉屏路,--,['I'],['I'],438,378,0.0,41.75,0,-1.0,,,,False,,[],42,False,False,https://sinyi.in/o/1060WV/0/3,2,1,,3,False,False,542,1.0,,,False,False,南投縣,Nantou-county,5,https://www.sinyi.com.tw/buy/list/Nantou-county/default-desc/5
,1818BC,新接！！草屯農地,23.983426,120.700335,['https://res.sinyi.com.tw/buy/1818BC/smallimg/A.JPG'],https://res.sinyi.com.tw/buy/1818BC/bigimg/A.JPG,,,,,0.0,南投縣草屯鎮玉屏路,--,['I'],['I'],1460,1460,0.0,524.08,0,-1.0,,,,False,,"['100', '111']",8,False,False,https://sinyi.in/o/1818BC/0/3,2,1,,3,False,False,542,1.0,,,False,False,南投縣,Nantou-county,5,https://www.sinyi.com.tw/buy/list/Nantou-county/default-desc/5
,3801VG,埔里豪華農舍值得一看,23.983985,121.000005,['https://res.sinyi.com.tw/buy/3801VG/smallimg/A.JPG'],https://res.sinyi.com.tw/buy/3801VG/bigimg/A.JPG,,,,,0.0,南投縣埔里鎮內埔路,17.9年,['D'],['D'],7980,7980,74.94,1191.27,0,74.94,3房2廳1衛1室,1,1,True,['6'],"['7', '6', '4', '5', '2', '11']",113,False,False,https://sinyi.in/o/3801VG/0/3,2,1,,1,False,False,545,1.0,1衛,3房2廳2衛1室,False,False,南投縣,Nantou-county,5,https://www.sinyi.com.tw/buy/list/Nantou-county/default-desc/5
,5676UH,穩定代管裝潢透套置產首選,23.97173,120.962321,['https://res.sinyi.com.tw/buy/5676UH/smallimg/A.JPG'],https://res.sinyi.com.tw/buy/5676UH/bigimg/A.JPG,,,,,0.0,南投縣埔里鎮中正路,7.3年,['D'],['N'],2880,2880,84.35,39.93,1,75.53,12房10衛,1-3,3,False,,"['7', '3', '4', '5', '2', '16', '18', '107', '111']",36,False,False,https://sinyi.in/o/5676UH/0/3,2,1,,1,False,False,545,1.0,1房2廳4衛,13房2廳14衛,False,False,南投縣,Nantou-county,5,https://www.sinyi.com.tw/buy/list/Nantou-county/default-desc/5
,5064UJ,埔里土地丙建稀有釋出,23.988351,121.020321,['https://res.sinyi.com.tw/buy/5064UJ/smallimg/A.JPG'],https://res.sinyi.com.tw/buy/5064UJ/bigimg/A.JPG,,,,,0.0,南投縣埔里鎮中山路一段,--,['I'],['I'],1100,1100,0.0,173.63,0,-1.0,,,,False,,['100'],29,False,False,https://sinyi.in/o/5064UJ/0/3,2,1,,3,False,False,545,1.0,,,False,False,南投縣,Nantou-county,5,https://www.sinyi.com.tw/buy/list/Nantou-county/default-desc/5
,9793QN,【集集】透天大地坪多用,23.827069,120.778527,['https://res.sinyi.com.tw/buy/9793QN/smallimg/A.JPG'],https://res.sinyi.com.tw/buy/9793QN/bigimg/A.JPG,,,,,0.0,南投縣集集鎮民生路,21.6年,['E'],['E'],2998,2998,144.18,90.89,1,144.18,2房1廳6衛7室,1-3,3,False,,"['7', '5', '16', '19']",40,False,False,https://sinyi.in/o/9793QN/0/3,2,1,,1,False,False,552,1.0,1廳,2房2廳6衛7室,False,False,南投縣,Nantou-county,5,https://www.sinyi.com.tw/buy/list/Nantou-county/default-desc/5
,0557ZD,馬年大旺南崗區大面寬透天,23.928273,120.674026,['https://res.sinyi.com.tw/buy/0557ZD/smallimg/A.JPG'],https://res.sinyi.com.tw/buy/0557ZD/bigimg/A.JPG,,,,,0.0,南投縣南投市成功東路,8.1年,['D'],['N'],1680,1680,62.82,24.12,0,55.79,4房3廳4衛,1-4,4,True,['9'],"['16', '18', '19', '107']",47,False,False,https://sinyi.in/o/0557ZD/0/3,2,1,,1,False,False,540,1.0,,4房3廳4衛,False,False,南投縣,Nantou-county,5,https://www.sinyi.com.tw/buy/list/Nantou-county/default-desc/5
,1854YH,馬年大吉面寬約５米透店,23.928218,120.674102,['https://res.sinyi.com.tw/buy/1854YH/smallimg/A.JPG'],https://res.sinyi.com.tw/buy/1854YH/bigimg/A.JPG,,,,,0.0,南投縣南投市成功東路,8.1年,"['E', 'D']","['E', 'N']",2280,2280,69.68,28.88,1,65.02,4房4廳4衛,1-4,4,False,,"['16', '18', '19', '107']",14,False,False,https://sinyi.in/o/1854YH/0/3,2,1,,1,False,False,540,1.0,,4房4廳4衛,False,False,南投縣,Nantou-county,5,https://www.sinyi.com.tw/buy/list/Nantou-county/default-desc/5
,4109RB,南投埔里陽光透天,23.929569,120.988147,['https://res.sinyi.com.tw/buy/4109RB/smallimg/A.JPG'],https://res.sinyi.com.tw/buy/4109RB/bigimg/A.JPG,,,,,0.0,南投縣埔里鎮中正路,57.5年,['D'],['N'],4198,4198,46.98,488.1,0,46.98,3房2廳1室,1-1,1,False,,"['7', '6', '5', '2', '19']",133,False,False,https://sinyi.in/o/4109RB/0/3,2,1,,1,False,False,545,1.0,2房2衛,5房2廳2衛1室,False,False,南投縣,Nantou-county,5,https://www.sinyi.com.tw/buy/list/Nantou-county/default-desc/5
,5171SX,南投名間近全聯臨路土地Ａ,23.840642,120.703073,['https://res.sinyi.com.tw/buy/5171SX/smallimg/A.JPG'],https://res.sinyi.com.tw/buy/5171SX/bigimg/A.JPG,,,,,0.0,南投縣名間鄉彰南路,--,['I'],['I'],850,850,0.0,78.71,0,-1.0,,,,False,,"['18', '100', '107', '111']",7,False,False,https://sinyi.in/o/5171SX/0/3,2,1,,3,False,False,551,1.0,,,False,False,南投縣,Nantou-county,5,https://www.sinyi.com.tw/buy/list/Nantou-county/default-desc/5
,6670HT,南投名間近全聯臨路土地Ｂ,23.840691,120.703544,['https://res.sinyi.com.tw/buy/6670HT/smallimg/A.JPG'],https://res.sinyi.com.tw/buy/6670HT/bigimg/A.JPG,,,,,0.0,南投縣名間鄉彰南路,--,['I'],['I'],1450,1450,0.0,133.66,0,-1.0,,,,False,,"['18', '100', '107', '111']",7,False,False,https://sinyi.in/o/6670HT/0/3,2,1,,3,False,False,551,1.0,,,False,False,南投縣,Nantou-county,5,https://www.sinyi.com.tw/buy/list/Nantou-county/default-desc/5
,4738JW,南投魚池鄉千坪土地,23.898887,120.938259,['https://res.sinyi.com.tw/buy/4738JW/smallimg/A.JPG'],https://res.sinyi.com.tw/buy/4738JW/bigimg/A.JPG,,,,,0.0,南投縣魚池鄉瓊文巷,--,['I'],['I'],9888,9888,0.0,1013.15,0,-1.0,,,,False,,"['18', '19', '107']",30,False,False,https://sinyi.in/o/4738JW/0/3,2,1,,3,False,False,555,1.0,,,False,False,南投縣,Nantou-county,5,https://www.sinyi.com.tw/buy/list/Nantou-county/default-desc/5
,4444FT,南投土地,23.92652,120.708324,['https://res.sinyi.com.tw/buy/4444FT/smallimg/A.JPG'],https://res.sinyi.com.tw/buy/4444FT/bigimg/A.JPG,,,,,0.0,南投縣南投市大埤街,--,['I'],['I'],1738,1738,0.0,177.29,0,-1.0,,0,0,False,,['100'],9,False,False,https://sinyi.in/o/4444FT/0/3,2,1,,3,False,False,540,1.0,,,False,False,南投縣,Nantou-county,5,https://www.sinyi.com.tw/buy/list/Nantou-county/default-desc/5
,0012MS,退休首選市區大地坪透天,23.957889,120.972142,['https://res.sinyi.com.tw/buy/0012MS/smallimg/A.JPG'],https://res.sinyi.com.tw/buy/0012MS/bigimg/A.JPG,,,,,0.0,南投縣埔里鎮東興一街,38.3年,['D'],['N'],858,858,23.71,39.33,0,19.2,2廳1衛,1-1,1,False,,"['1', '16', '18', '19', '20', '107']",117,False,False,https://sinyi.in/o/0012MS/0/3,2,1,,1,False,False,545,1.0,1房1廳,1房3廳1衛,False,False,南投縣,Nantou-county,5,https://www.sinyi.com.tw/buy/list/Nantou-county/default-desc/5
,2478RS,馬上有錢誠售近南崗區透天,23.928346,120.673987,['https://res.sinyi.com.tw/buy/2478RS/smallimg/A.JPG'],https://res.sinyi.com.tw/buy/2478RS/bigimg/A.JPG,,,,,0.0,南投縣南投市成功東路,8.1年,"['E', 'D']","['E', 'N']",1680,1680,61.25,23.69,0,55.79,4房3廳4衛,1-4,4,True,['9'],"['16', '18', '19', '107']",26,False,False,https://sinyi.in/o/2478RS/0/3,2,1,,1,False,False,540,1.0,,4房3廳4衛,False,False,南投縣,Nantou-county,5,https://www.sinyi.com.tw/buy/list/Nantou-county/default-desc/5
,54293G,草屯農地２,23.965245,120.658676,['https://res.sinyi.com.tw/buy/54293G/smallimg/A.JPG'],https://res.sinyi.com.tw/buy/54293G/bigimg/A.JPG,,,,,0.0,南投縣草屯鎮碧峰路,--,['I'],['I'],5800,5800,0.0,1109.87,0,-1.0,,,,False,,"['100', '111']",6,False,False,https://sinyi.in/o/54293G/0/3,2,1,,3,False,False,542,1.0,,,False,False,南投縣,Nantou-county,5,https://www.sinyi.com.tw/buy/list/Nantou-county/default-desc/5
,6302CR,面寬約９米４草屯美透天,23.9777493,120.7415388,['https://res.sinyi.com.tw/buy/6302CR/smallimg/A.JPG'],https://res.sinyi.com.tw/buy/6302CR/bigimg/A.JPG,,,,,0.0,南投縣草屯鎮二坪巷,30.0年,['D'],['N'],1380,1380,97.34,58.57,1,94.45,6房2廳6衛1室,1-4,4,False,,"['7', '6', '4', '5', '2', '20']",243,False,False,https://sinyi.in/o/6302CR/0/3,2,1,,1,False,False,542,1.0,6房1衛,12房2廳7衛1室,False,False,南投縣,Nantou-county,5,https://www.sinyi.com.tw/buy/list/Nantou-county/default-desc/5
,8560GW,南投乙工３０００坪廠房,23.894421,120.6879,['https://res.sinyi.com.tw/buy/8560GW/smallimg/A.JPG'],https://res.sinyi.com.tw/buy/8560GW/bigimg/A.JPG,,,,,-3.92,南投縣南投市彰南路一段,7.3年,['G'],['G'],131971,126800,1729.09,3493.27,0,1729.09,19廳19衛,1-1,1,False,,"['7', '2', '16', '18', '19', '21', '107']",13,False,False,https://sinyi.in/o/8560GW/0/3,2,1,,1,False,False,540,3.0,,19廳19衛,False,False,南投縣,Nantou-county,5,https://www.sinyi.com.tw/buy/list/Nantou-county/default-desc/5
,3910YJ,極美景觀農地,24.047723,120.815985,['https://res.sinyi.com.tw/buy/3910YJ/smallimg/A.JPG'],https://res.sinyi.com.tw/buy/3910YJ/bigimg/A.JPG,,,,,0.0,南投縣國姓鄉中西巷,--,['I'],['I'],1366,1366,0.0,1076.93,0,-1.0,,1-1,1,False,,[],16,False,False,https://sinyi.in/o/3910YJ/0/3,2,1,,3,False,False,544,1.0,2廳1衛,2廳1衛,False,False,南投縣,Nantou-county,5,https://www.sinyi.com.tw/buy/list/Nantou-county/default-desc/5
,4430AT,達觀山林極美景觀農地,24.047885,120.816211,['https://res.sinyi.com.tw/buy/4430AT/smallimg/A.JPG'],https://res.sinyi.com.tw/buy/4430AT/bigimg/A.JPG,,,,,0.0,南投縣國姓鄉中西巷,--,['I'],['I'],1888,1888,0.0,823.74,0,-1.0,,1-2,2,False,,[],13,False,False,https://sinyi.in/o/4430AT/0/3,2,1,,3,False,False,544,1.0,1房3廳2衛,1房3廳2衛,False,False,南投縣,Nantou-county,6,https://www.sinyi.com.tw/buy/list/Nantou-county/default-desc/6
,5643LW,南投家樂福旁美透天,23.904935,120.69007,['https://res.sinyi.com.tw/buy/5643LW/smallimg/A.JPG'],https://res.sinyi.com.tw/buy/5643LW/bigimg/A.JPG,,,,,0.0,南投縣南投市中興路二街,39.7年,['D'],['N'],1800,1800,65.01,27.22,0,60.25,6房1廳1衛2室,1-4,4,False,,"['7', '3', '4', '5', '2', '16', '18', '19', '107']",58,False,False,https://sinyi.in/o/5643LW/0/3,2,1,,1,False,False,540,1.0,2房2廳3衛,8房3廳4衛2室,False,False,南投縣,Nantou-county,6,https://www.sinyi.com.tw/buy/list/Nantou-county/default-desc/6
,8532DT,驚喜價！臨路美墅,23.975961,120.705275,['https://res.sinyi.com.tw/buy/8532DT/smallimg/A.JPG'],https://res.sinyi.com.tw/buy/8532DT/bigimg/A.JPG,,,,,0.0,南投縣草屯鎮富中路,24.6年,['D'],['N'],1380,1380,51.32,26.87,1,46.46,4房2廳3衛,1-3,3,True,['6'],"['4', '21']",123,False,False,https://sinyi.in/o/8532DT/0/3,2,1,,1,False,False,542,1.0,1廳,4房3廳3衛,False,False,南投縣,Nantou-county,6,https://www.sinyi.com.tw/buy/list/Nantou-county/default-desc/6
,6687WV,草屯土地約４３８８坪,23.971929,120.695013,['https://res.sinyi.com.tw/buy/6687WV/smallimg/A.JPG'],https://res.sinyi.com.tw/buy/6687WV/bigimg/A.JPG,,,,,0.0,南投縣草屯鎮富林路一段,--,['I'],['I'],7786,7786,0.0,3360.82,0,-1.0,,,,False,,['111'],5,False,False,https://sinyi.in/o/6687WV/0/3,2,1,,3,False,False,542,1.0,,,False,False,南投縣,Nantou-county,6,https://www.sinyi.com.tw/buy/list/Nantou-county/default-desc/6
,8869FG,南投埔里暨南佰坪土地首選,23.942279,120.929467,['https://res.sinyi.com.tw/buy/8869FG/smallimg/A.JPG'],https://res.sinyi.com.tw/buy/8869FG/bigimg/A.JPG,,,,,0.0,南投縣埔里鎮中正路,--,['I'],['I'],520,520,0.0,116.38,0,-1.0,,,,False,,['111'],136,False,False,https://sinyi.in/o/8869FG/0/3,2,1,,3,False,False,545,1.0,,,False,False,南投縣,Nantou-county,6,https://www.sinyi.com.tw/buy/list/Nantou-county/default-desc/6
,9974QC,南崗工業區方正廠房,23.921379,120.665434,['https://res.sinyi.com.tw/buy/9974QC/smallimg/A.JPG'],https://res.sinyi.com.tw/buy/9974QC/bigimg/A.JPG,,,,,-15.46,南投縣南投市仁和路,2.2年,['F'],['F'],3880,3280,58.86,100.13,0,58.86,1廳1衛,1-1,1,False,,['16'],7,False,False,https://sinyi.in/o/9974QC/0/3,2,1,,1,False,False,540,3.0,,1廳1衛,False,False,南投縣,Nantou-county,6,https://www.sinyi.com.tw/buy/list/Nantou-county/default-desc/6
,1647KG,誠售！南投大地坪土地,23.930511,120.652992,['https://res.sinyi.com.tw/buy/1647KG/smallimg/A.JPG'],https://res.sinyi.com.tw/buy/1647KG/bigimg/A.JPG,,,,,0.0,南投縣南投市永鳴路,--,['I'],['I'],2350,2350,0.0,3057.82,0,-1.0,,,,False,,[],5,False,False,https://sinyi.in/o/1647KG/0/3,2,1,,3,False,False,540,1.0,,,False,False,南投縣,Nantou-county,6,https://www.sinyi.com.tw/buy/list/Nantou-county/default-desc/6
,0032YL,南投中寮近市區臨路美地俗,23.874743,120.758641,['https://res.sinyi.com.tw/buy/0032YL/smallimg/A.JPG'],https://res.sinyi.com.tw/buy/0032YL/bigimg/A.JPG,,,,,0.0,南投縣中寮鄉愛鄉巷,--,['I'],['I'],320,320,0.0,756.25,0,-1.0,,,,False,,[],9,False,False,https://sinyi.in/o/0032YL/0/3,2,1,,3,False,False,541,1.0,,,False,False,南投縣,Nantou-county,6,https://www.sinyi.com.tw/buy/list/Nantou-county/default-desc/6
,2210JV,低總價開心農場美地,23.775804,120.768063,['https://res.sinyi.com.tw/buy/2210JV/smallimg/A.JPG'],https://res.sinyi.com.tw/buy/2210JV/bigimg/A.JPG,,,,,0.0,南投縣鹿谷鄉仁愛路,--,['I'],['I'],200,200,0.0,1516.13,0,-1.0,,1,1,False,,[],121,False,False,https://sinyi.in/o/2210JV/0/3,2,1,,3,False,False,558,1.0,1房,1房,False,False,南投縣,Nantou-county,6,https://www.sinyi.com.tw/buy/list/Nantou-county/default-desc/6
,3016WN,草屯土地約２５２７坪,23.972092,120.693475,['https://res.sinyi.com.tw/buy/3016WN/smallimg/A.JPG'],https://res.sinyi.com.tw/buy/3016WN/bigimg/A.JPG,,,,,0.0,南投縣草屯鎮富林路一段,--,['I'],['I'],6436,6436,0.0,2527.28,0,-1.0,,,,False,,['111'],5,False,False,https://sinyi.in/o/3016WN/0/3,2,1,,3,False,False,542,1.0,,,False,False,南投縣,Nantou-county,6,https://www.sinyi.com.tw/buy/list/Nantou-county/default-desc/6
,4732VM,南投埔里向善段土地,23.986039,120.917888,['https://res.sinyi.com.tw/buy/4732VM/smallimg/A.JPG'],https://res.sinyi.com.tw/buy/4732VM/bigimg/A.JPG,,,,,0.0,南投縣埔里鎮觀音路,--,['I'],['I'],1980,1980,0.0,832.7,0,-1.0,,,,False,,[],33,False,False,https://sinyi.in/o/4732VM/0/3,2,1,,3,False,False,545,1.0,,,False,False,南投縣,Nantou-county,6,https://www.sinyi.com.tw/buy/list/Nantou-county/default-desc/6
,29224Q,★專任！集集稀有開心農場,23.836368,120.740371,['https://res.sinyi.com.tw/buy/29224Q/smallimg/A.JPG'],https://res.sinyi.com.tw/buy/29224Q/bigimg/A.JPG,,,,,0.0,南投縣集集鎮隘埔巷,92.0年,['I'],['I'],9988,9988,47.12,1909.25,0,47.12,,1-1,1,False,,[],9,False,False,https://sinyi.in/o/29224Q/0/3,2,1,,3,False,False,552,1.0,,,False,False,南投縣,Nantou-county,6,https://www.sinyi.com.tw/buy/list/Nantou-county/default-desc/6
,59120W,★專任！集集精華開心農場,23.836572,120.740328,['https://res.sinyi.com.tw/buy/59120W/smallimg/A.JPG'],https://res.sinyi.com.tw/buy/59120W/bigimg/A.JPG,,,,,0.0,南投縣集集鎮隘埔巷,92.0年,['I'],['I'],7650,7650,47.12,1059.3,0,47.12,,1-1,1,False,,[],5,False,False,https://sinyi.in/o/59120W/0/3,2,1,,3,False,False,552,1.0,,,False,False,南投縣,Nantou-county,6,https://www.sinyi.com.tw/buy/list/Nantou-county/default-desc/6
,97896L,★專任！集集臨路開心農場,23.834949,120.742835,['https://res.sinyi.com.tw/buy/97896L/smallimg/A.JPG'],https://res.sinyi.com.tw/buy/97896L/bigimg/A.JPG,,,,,0.0,南投縣集集鎮共和巷,--,['I'],['I'],2550,2550,0.0,849.96,0,-1.0,,,,False,,[],6,False,False,https://sinyi.in/o/97896L/0/3,2,1,,3,False,False,552,1.0,,,False,False,南投縣,Nantou-county,6,https://www.sinyi.com.tw/buy/list/Nantou-county/default-desc/6
,8815LW,埔里快樂田園小天堂,23.926539,120.977029,['https://res.sinyi.com.tw/buy/8815LW/smallimg/A.JPG'],https://res.sinyi.com.tw/buy/8815LW/bigimg/A.JPG,,,,,0.0,南投縣埔里鎮過坑路,--,['I'],['I'],250,250,0.0,476.74,0,-1.0,,,,False,,[],35,False,False,https://sinyi.in/o/8815LW/0/3,2,1,,3,False,False,545,1.0,,,False,False,南投縣,Nantou-county,6,https://www.sinyi.com.tw/buy/list/Nantou-county/default-desc/6
,95891M,首推！竹山山坡農牧用地,23.743398,120.710427,['https://res.sinyi.com.tw/buy/95891M/smallimg/A.JPG'],https://res.sinyi.com.tw/buy/95891M/bigimg/A.JPG,,,,,0.0,南投縣竹山鎮中山路,--,['I'],['I'],420,420,0.0,1356.11,0,-1.0,,,,False,,[],6,False,False,https://sinyi.in/o/95891M/0/3,2,1,,3,False,False,557,1.0,,,False,False,南投縣,Nantou-county,6,https://www.sinyi.com.tw/buy/list/Nantou-county/default-desc/6
,0113QH,南投市臨路透天,23.911821,120.686724,['https://res.sinyi.com.tw/buy/0113QH/smallimg/A.JPG'],https://res.sinyi.com.tw/buy/0113QH/bigimg/A.JPG,,,,,0.0,南投縣南投市大同街,58.1年,['D'],['N'],1500,1500,53.72,34.18,0,45.92,5房2廳2衛,1-2,2,False,,"['6', '16', '18', '19']",127,False,False,https://sinyi.in/o/0113QH/0/3,2,1,,1,False,False,540,1.0,2房,7房2廳2衛,False,False,南投縣,Nantou-county,6,https://www.sinyi.com.tw/buy/list/Nantou-county/default-desc/6
,4644SW,屋主誠售南投土地含透天,23.896127,120.685877,['https://res.sinyi.com.tw/buy/4644SW/smallimg/A.JPG'],https://res.sinyi.com.tw/buy/4644SW/bigimg/A.JPG,,,,,0.0,南投縣南投市彰南路一段,--,['I'],['I'],550,550,0.0,29.04,0,-1.0,,1-2,0,False,,"['16', '18', '19', '107']",60,False,False,https://sinyi.in/o/4644SW/0/3,2,1,,3,False,False,540,1.0,4房2廳2衛,4房2廳2衛,False,False,南投縣,Nantou-county,6,https://www.sinyi.com.tw/buy/list/Nantou-county/default-desc/6
,7406KY,【精選】南投埔里臨路土地,24.000763,120.964872,['https://res.sinyi.com.tw/buy/7406KY/smallimg/A.JPG'],https://res.sinyi.com.tw/buy/7406KY/bigimg/A.JPG,,,,,0.0,南投縣埔里鎮西安路二段,--,['I'],['I'],9385,9385,0.0,1563.85,0,-1.0,,,,False,,[],5,False,False,https://sinyi.in/o/7406KY/0/3,2,1,,3,False,False,545,1.0,,,False,False,南投縣,Nantou-county,6,https://www.sinyi.com.tw/buy/list/Nantou-county/default-desc/6
,2830WR,☆國姓鄉農地歡迎詢問☆,23.906751,120.847366,['https://res.sinyi.com.tw/buy/2830WR/smallimg/A.JPG'],https://res.sinyi.com.tw/buy/2830WR/bigimg/A.JPG,,,,,0.0,南投縣國姓鄉港頭巷,--,['I'],['I'],1050,1050,0.0,3176.25,0,-1.0,,,,False,,[],6,False,False,https://sinyi.in/o/2830WR/0/3,2,1,,3,False,False,544,1.0,,,False,False,南投縣,Nantou-county,6,https://www.sinyi.com.tw/buy/list/Nantou-county/default-desc/6
,6736HP,國姓國中後山快樂農地,24.041291,120.861065,['https://res.sinyi.com.tw/buy/6736HP/smallimg/A.JPG'],https://res.sinyi.com.tw/buy/6736HP/bigimg/A.JPG,,,,,0.0,南投縣國姓鄉國姓路,--,['I'],['I'],150,150,0.0,351.88,0,-1.0,,,,False,,"['18', '19', '107']",25,False,False,https://sinyi.in/o/6736HP/0/3,2,1,,3,False,False,544,1.0,,,False,False,南投縣,Nantou-county,7,https://www.sinyi.com.tw/buy/list/Nantou-county/default-desc/7
,1201SJ,鹿谷國小附近土地,23.737199,120.766339,['https://res.sinyi.com.tw/buy/1201SJ/smallimg/A.JPG'],https://res.sinyi.com.tw/buy/1201SJ/bigimg/A.JPG,,,,,0.0,南投縣鹿谷鄉中寮路,--,['I'],['I'],16000,16000,0.0,742.9,0,-1.0,,,,False,,['19'],5,False,False,https://sinyi.in/o/1201SJ/0/3,2,1,,3,False,False,558,1.0,,,False,False,南投縣,Nantou-county,7,https://www.sinyi.com.tw/buy/list/Nantou-county/default-desc/7
,8407RL,國姓國中後山臨路快樂農場,24.037619,120.861514,['https://res.sinyi.com.tw/buy/8407RL/smallimg/A.JPG'],https://res.sinyi.com.tw/buy/8407RL/bigimg/A.JPG,,,,,0.0,南投縣國姓鄉國姓路,--,['I'],['I'],400,400,0.0,880.28,0,-1.0,,,,False,,['19'],11,False,False,https://sinyi.in/o/8407RL/0/3,2,1,,3,False,False,544,1.0,,,False,False,南投縣,Nantou-county,7,https://www.sinyi.com.tw/buy/list/Nantou-county/default-desc/7
,0096JW,名間鄉農地１,23.861368,120.688431,['https://res.sinyi.com.tw/buy/0096JW/smallimg/A.JPG'],https://res.sinyi.com.tw/buy/0096JW/bigimg/A.JPG,,,,,0.0,南投縣名間鄉彰南路,--,['I'],['I'],250,250,0.0,401.26,0,-1.0,,,,False,,[],9,False,False,https://sinyi.in/o/0096JW/0/3,2,1,,3,False,False,551,1.0,,,False,False,南投縣,Nantou-county,7,https://www.sinyi.com.tw/buy/list/Nantou-county/default-desc/7
,2788DT,南投名間鄉農地,23.868889,120.66267,['https://res.sinyi.com.tw/buy/2788DT/smallimg/A.JPG'],https://res.sinyi.com.tw/buy/2788DT/bigimg/A.JPG,,,,,0.0,南投縣名間鄉大廈巷,--,['I'],['I'],868,868,0.0,894.67,0,-1.0,,,,False,,[],9,False,False,https://sinyi.in/o/2788DT/0/3,2,1,,3,False,False,551,1.0,,,False,False,南投縣,Nantou-county,7,https://www.sinyi.com.tw/buy/list/Nantou-county/default-desc/7
,5332RL,名間鄉農地,23.86175,120.688208,['https://res.sinyi.com.tw/buy/5332RL/smallimg/A.JPG'],https://res.sinyi.com.tw/buy/5332RL/bigimg/A.JPG,,,,,0.0,南投縣名間鄉彰南路,--,['I'],['I'],250,250,0.0,417.0,0,-1.0,,,,False,,[],9,False,False,https://sinyi.in/o/5332RL/0/3,2,1,,3,False,False,551,1.0,,,False,False,南投縣,Nantou-county,7,https://www.sinyi.com.tw/buy/list/Nantou-county/default-desc/7
,5498PB,南投中寮鄉農用地,23.855336,120.81276,['https://res.sinyi.com.tw/buy/5498PB/smallimg/A.JPG'],https://res.sinyi.com.tw/buy/5498PB/bigimg/A.JPG,,,,,0.0,南投縣中寮鄉頂城巷,--,['I'],['I'],3328,3328,0.0,9130.36,0,-1.0,,0,0,False,,[],7,False,False,https://sinyi.in/o/5498PB/0/3,2,1,,3,False,False,541,1.0,,,False,False,南投縣,Nantou-county,7,https://www.sinyi.com.tw/buy/list/Nantou-county/default-desc/7
,5779VD,南投低總價土地,23.72745,120.858247,['https://res.sinyi.com.tw/buy/5779VD/smallimg/A.JPG'],https://res.sinyi.com.tw/buy/5779VD/bigimg/A.JPG,,,,,0.0,南投縣水里鄉頂安路,--,['I'],['I'],350,350,0.0,3724.81,0,-1.0,,,,False,,[],48,False,False,https://sinyi.in/o/5779VD/0/3,2,1,,3,False,False,553,1.0,,,False,False,南投縣,Nantou-county,7,https://www.sinyi.com.tw/buy/list/Nantou-county/default-desc/7
,7067ZC,南投國姓咖啡飄香土地,24.027597,120.842802,['https://res.sinyi.com.tw/buy/7067ZC/smallimg/A.JPG'],https://res.sinyi.com.tw/buy/7067ZC/bigimg/A.JPG,,,,,0.0,南投縣國姓鄉中正路二段,--,['I'],['I'],600,600,0.0,127.66,0,-1.0,,,,False,,[],8,False,False,https://sinyi.in/o/7067ZC/0/3,2,1,,3,False,False,544,1.0,,,False,False,南投縣,Nantou-county,7,https://www.sinyi.com.tw/buy/list/Nantou-county/default-desc/7
,JS100827HB,名間員集路大面寬方正建地,23.831345,120.7166,['https://img.hbhousing.com.tw/pictures/C290/C290JS100827a.jpg'],https://img.hbhousing.com.tw/pictures/C290/C290JS100827a.jpg,,,,,0.0,南投縣名間鄉同源段,--,['I'],['I'],0,9376,0.0,679.41,0,-1.0,,1,0,False,,[],7,False,False,https://sinyi.in/o/JS100827HB/0/3,0,2,,3,False,False,551,,,,False,False,南投縣,Nantou-county,7,https://www.sinyi.com.tw/buy/list/Nantou-county/default-desc/7
,JS100954HB,草屯加老南路近國3全新別墅A,23.998755666,120.656450136,['https://img.hbhousing.com.tw/pictures/C303/C303JS100954a.jpg'],https://img.hbhousing.com.tw/pictures/C303/C303JS100954a.jpg,,,,,0.0,南投縣草屯鎮加老南路,1.0年,['D'],['D'],0,1980,66.24,23.53,1,66.24,6房3廳7衛,1-4,4,True,['6'],[],29,False,False,https://sinyi.in/o/JS100954HB/0/3,0,2,,1,False,False,542,,,6房3廳7衛,False,False,南投縣,Nantou-county,7,https://www.sinyi.com.tw/buy/list/Nantou-county/default-desc/7
,JS101016HB,竹山靜謐美別墅,23.765964,120.664812,['https://img.hbhousing.com.tw/pictures/C220/C220JS101016a.jpg'],https://img.hbhousing.com.tw/pictures/C220/C220JS101016a.jpg,,,,,0.0,南投縣竹山鎮中和路,4.6年,['D'],['D'],0,3300,135.96,160.59,0,135.96,7房4廳3衛,1-2,2,True,['5'],[],9,False,False,https://sinyi.in/o/JS101016HB/0/3,0,2,,1,False,False,557,,,7房4廳3衛,False,False,南投縣,Nantou-county,7,https://www.sinyi.com.tw/buy/list/Nantou-county/default-desc/7
,JS101543HB,專任近忠孝國小建地送屋,23.966496,120.969381,['https://img.hbhousing.com.tw/pictures/C199/C199JS101543a.jpg'],https://img.hbhousing.com.tw/pictures/C199/C199JS101543a.jpg,,,,,0.0,南投縣埔里鎮內埔段,--,['I'],['I'],0,145,0.0,31.93,0,-1.0,,0,0,False,,[],2,False,False,https://sinyi.in/o/JS101543HB/0/3,0,2,,3,False,False,545,,,,False,False,南投縣,Nantou-county,7,https://www.sinyi.com.tw/buy/list/Nantou-county/default-desc/7
,JS102775HB,獨家專賣魚池商業區美建地(A),23.89639,120.93716,['https://img.hbhousing.com.tw/pictures/C303/C303JS102775a.jpg'],https://img.hbhousing.com.tw/pictures/C303/C303JS102775a.jpg,,,,,0.0,南投縣魚池鄉內池段,--,['I'],['I'],0,548,0.0,29.07,0,-1.0,,0,0,False,,[],4,False,False,https://sinyi.in/o/JS102775HB/0/3,0,2,,3,False,False,555,,,,False,False,南投縣,Nantou-county,7,https://www.sinyi.com.tw/buy/list/Nantou-county/default-desc/7
,JS102791HB,草屯北投埔段低單價鄉村美農田,23.97815,120.65955,['https://img.hbhousing.com.tw/pictures/C303/C303JS102791a.jpg'],https://img.hbhousing.com.tw/pictures/C303/C303JS102791a.jpg,,,,,0.0,南投縣草屯鎮北投埔段,--,['I'],['I'],0,1998,0.0,952.88,0,-1.0,,0,0,False,,[],0,False,False,https://sinyi.in/o/JS102791HB/0/3,0,2,,3,False,False,542,,,,False,False,南投縣,Nantou-county,7,https://www.sinyi.com.tw/buy/list/Nantou-county/default-desc/7
,JS97177HB,市區全新15米路大面寬店面,23.9602127231,120.974605956,['https://img.hbhousing.com.tw/pictures/C199/C199JS97177a.jpg'],https://img.hbhousing.com.tw/pictures/C199/C199JS97177a.jpg,,,,,0.0,南投縣埔里鎮樹人路,2.1年,['E'],['E'],0,2580,46.19,36.11,1,46.19,2廳2衛,1-2,2,False,,[],8,False,False,https://sinyi.in/o/JS97177HB/0/3,0,2,,1,False,False,545,,,2廳2衛,False,False,南投縣,Nantou-county,7,https://www.sinyi.com.tw/buy/list/Nantou-county/default-desc/7
,JS97749HB,北中寮大龜坑農地B,23.915324,120.75956,['https://img.hbhousing.com.tw/pictures/C105/C105JS97749a.jpg'],https://img.hbhousing.com.tw/pictures/C105/C105JS97749a.jpg,,,,,0.0,南投縣中寮鄉鄉林巷,--,['I'],['I'],0,480,0.0,2356.17,0,-1.0,,0,0,False,,[],1,False,False,https://sinyi.in/o/JS97749HB/0/3,0,2,,3,False,False,541,,,,False,False,南投縣,Nantou-county,7,https://www.sinyi.com.tw/buy/list/Nantou-county/default-desc/7
,MS126491HB,竹山工業區工業用地,23.7697037576,120.703081011,['https://img.hbhousing.com.tw/pictures/C203/C203MS126491a.jpg'],https://img.hbhousing.com.tw/pictures/C203/C203MS126491a.jpg,,,,,0.0,南投縣竹山鎮延平二路,--,['I'],['I'],0,9199,0.0,574.96,0,-1.0,,0,0,False,,[],3,False,False,https://sinyi.in/o/MS126491HB/0/3,0,2,,3,False,False,557,,,,False,False,南投縣,Nantou-county,7,https://www.sinyi.com.tw/buy/list/Nantou-county/default-desc/7
,MS151900HB,南投市國3旁輕屋齡臨路透天,23.9169638914,120.683902277,['https://img.hbhousing.com.tw/pictures/C284/C284MS151900a.jpg'],https://img.hbhousing.com.tw/pictures/C284/C284MS151900a.jpg,,,,,0.0,南投縣南投市祖祠路,8.6年,['D'],['D'],0,1758,56.54,27.53,1,56.54,4房3廳5衛,1-3,3,False,,[],13,False,False,https://sinyi.in/o/MS151900HB/0/3,0,2,,1,False,False,540,,,4房3廳5衛,False,False,南投縣,Nantou-county,7,https://www.sinyi.com.tw/buy/list/Nantou-county/default-desc/7
,MS154635HB,南投竹山近國道大廟宇,23.7734137109,120.695651272,['https://img.hbhousing.com.tw/pictures/C267/C267MS154635a.jpg'],https://img.hbhousing.com.tw/pictures/C267/C267MS154635a.jpg,,,,,0.0,南投縣竹山鎮延正路,15.6年,['K'],['K'],0,3350,74.73,1059.68,1,74.73,5房2廳5衛,1-2,2,False,,[],3,False,False,https://sinyi.in/o/MS154635HB/0/3,0,2,,1,False,False,557,,,5房2廳5衛,False,False,南投縣,Nantou-county,7,https://www.sinyi.com.tw/buy/list/Nantou-county/default-desc/7
,RS63457HB,水里鹿寮茶園A,23.886037441466,120.86932865925,['https://img.hbhousing.com.tw/pictures/C105/C105RS63457a.jpg'],https://img.hbhousing.com.tw/pictures/C105/C105RS63457a.jpg,,,,,0.0,南投縣水里鄉新興巷,--,['I'],['I'],0,538,0.0,1483.79,0,-1.0,,0,0,False,,[],15,False,False,https://sinyi.in/o/RS63457HB/0/3,0,2,,3,False,False,553,,,,False,False,南投縣,Nantou-county,8,https://www.sinyi.com.tw/buy/list/Nantou-county/default-desc/8
,RS71975HB,文四國小旁59坪公共設施保留地,23.75684,120.689848,['https://img.hbhousing.com.tw/pictures/C290/C290RS71975a.jpg'],https://img.hbhousing.com.tw/pictures/C290/C290RS71975a.jpg,,,,,0.0,南投縣竹山鎮中正巷,--,['I'],['I'],0,279,0.0,59.22,0,-1.0,,1,0,False,,[],19,False,False,https://sinyi.in/o/RS71975HB/0/3,0,2,,3,False,False,557,,,,False,False,南投縣,Nantou-county,8,https://www.sinyi.com.tw/buy/list/Nantou-county/default-desc/8
,RS72739HB,埔里休閒度假農舍,23.980384323405,120.98289791141,['https://img.hbhousing.com.tw/pictures/C105/C105RS72739a.jpg'],https://img.hbhousing.com.tw/pictures/C105/C105RS72739a.jpg,,,,,0.0,南投縣埔里鎮大湳路,15.9年,['K'],['K'],0,2888,62.9,445.75,0,62.9,5房2廳3衛,1-2,2,True,['6'],[],15,False,False,https://sinyi.in/o/RS72739HB/0/3,0,2,,1,False,False,545,,,5房2廳3衛,False,False,南投縣,Nantou-county,8,https://www.sinyi.com.tw/buy/list/Nantou-county/default-desc/8
,RS76203HB,第三市場好店住,23.963013056,120.966068115,['https://img.hbhousing.com.tw/pictures/C199/C199RS76203a.jpg'],https://img.hbhousing.com.tw/pictures/C199/C199RS76203a.jpg,,,,,0.0,南投縣埔里鎮同聲巷,54.7年,['E'],['E'],0,895,47.85,16.56,0,47.85,6房2廳3衛,1-4,0,False,,[],12,False,False,https://sinyi.in/o/RS76203HB/0/3,0,2,,1,False,False,545,,,6房2廳3衛,False,False,南投縣,Nantou-county,8,https://www.sinyi.com.tw/buy/list/Nantou-county/default-desc/8
,ES74122HB,埔里溫泉區美農地,24.00154,120.97561,['https://img.hbhousing.com.tw/pictures/C095/C095ES74122a.jpg'],https://img.hbhousing.com.tw/pictures/C095/C095ES74122a.jpg,,,,,0.0,南投縣埔里鎮牛尾段,--,['I'],['I'],0,3980,0.0,2012.98,0,-1.0,,0,0,False,,[],2,False,False,https://sinyi.in/o/ES74122HB/0/3,0,2,,3,False,False,545,,,,False,False,南投縣,Nantou-county,8,https://www.sinyi.com.tw/buy/list/Nantou-county/default-desc/8
,JS100793HB,總統官邸金店面2,23.978696883577,120.69903507627,['https://img.hbhousing.com.tw/pictures/C105/C105JS100793a.jpg'],https://img.hbhousing.com.tw/pictures/C105/C105JS100793a.jpg,,,,,0.0,南投縣草屯鎮中正路,22.2年,['E'],['E'],0,1900,71.71,20.34,0,53.72,3房1廳3衛,1-2,7,True,['2'],[],5,False,False,https://sinyi.in/o/JS100793HB/0/3,0,2,,1,False,False,542,,,3房1廳3衛,False,False,南投縣,Nantou-county,8,https://www.sinyi.com.tw/buy/list/Nantou-county/default-desc/8
,JS101026HB,南投同源全新精緻套房+客廳2B,23.922058057,120.666569828,['https://img.hbhousing.com.tw/pictures/C303/C303JS101026a.jpg'],https://img.hbhousing.com.tw/pictures/C303/C303JS101026a.jpg,,,,,0.0,南投縣南投市同源路四街,0.6年,['M'],['M'],0,353,11.95,3.09,0,6.4,1房1廳1衛,2,5,False,,[],37,False,False,https://sinyi.in/o/JS101026HB/0/3,0,2,,1,False,False,540,,,1房1廳1衛,False,False,南投縣,Nantou-county,8,https://www.sinyi.com.tw/buy/list/Nantou-county/default-desc/8
,JS101879HB,水里民和角農地,23.790959441914,120.90440747393,['https://img.hbhousing.com.tw/pictures/C105/C105JS101879a.jpg'],https://img.hbhousing.com.tw/pictures/C105/C105JS101879a.jpg,,,,,0.0,南投縣水里鄉新民和段,--,['I'],['I'],0,288,0.0,435.11,0,-1.0,,0,0,False,,[],0,False,False,https://sinyi.in/o/JS101879HB/0/3,0,2,,3,False,False,553,,,,False,False,南投縣,Nantou-county,8,https://www.sinyi.com.tw/buy/list/Nantou-county/default-desc/8
,JS54656HB,九族旁平房合法農業設施,23.877175,120.943965,['https://img.hbhousing.com.tw/pictures/C199/C199JS54656a.jpg'],https://img.hbhousing.com.tw/pictures/C199/C199JS54656a.jpg,,,,,0.0,南投縣魚池鄉金天巷,31.0年,['K'],['K'],0,3200,687.27,966.49,0,687.27,3房2廳2衛,1,1,False,,[],4,False,False,https://sinyi.in/o/JS54656HB/0/3,0,2,,1,False,False,555,,,3房2廳2衛,False,False,南投縣,Nantou-county,8,https://www.sinyi.com.tw/buy/list/Nantou-county/default-desc/8
,JS95915HB,專任水頭合法農舍,23.966496,120.969381,['https://img.hbhousing.com.tw/pictures/C199/C199JS95915a.jpg'],https://img.hbhousing.com.tw/pictures/C199/C199JS95915a.jpg,,,,,0.0,南投縣埔里鎮水源段,--,['I'],['I'],0,1380,0.0,330.41,0,-1.0,1房,0,1,False,,[],7,False,False,https://sinyi.in/o/JS95915HB/0/3,0,2,,3,False,False,545,,,1房,False,False,南投縣,Nantou-county,8,https://www.sinyi.com.tw/buy/list/Nantou-county/default-desc/8
,JS97570HB,草屯富頂匯金店住A,23.976127435001,120.70216785869,['https://img.hbhousing.com.tw/pictures/C140/C140JS97570a.jpg'],https://img.hbhousing.com.tw/pictures/C140/C140JS97570a.jpg,,,,,0.0,南投縣草屯鎮富頂路一段,4.4年,['E'],['E'],0,1998,68.76,29.45,1,68.72,4房3廳4衛,1-4,0,True,['6'],[],4,False,False,https://sinyi.in/o/JS97570HB/0/3,0,2,,1,False,False,542,,,4房3廳4衛,False,False,南投縣,Nantou-county,8,https://www.sinyi.com.tw/buy/list/Nantou-county/default-desc/8
,JS99029HB,延平省錢邊間震後美透天,23.7628817566,120.70349903,['https://img.hbhousing.com.tw/pictures/C290/C290JS99029a.jpg'],https://img.hbhousing.com.tw/pictures/C290/C290JS99029a.jpg,,,,,0.0,南投縣竹山鎮瑞竹巷,25.1年,['D'],['D'],0,900,54.17,24.41,1,54.17,4房3廳3衛,1-4,0,False,,[],14,False,False,https://sinyi.in/o/JS99029HB/0/3,0,2,,1,False,False,557,,,4房3廳3衛,False,False,南投縣,Nantou-county,8,https://www.sinyi.com.tw/buy/list/Nantou-county/default-desc/8
,JS99632HB,新街華府全新超美別墅,23.870742699619,120.69700797636,['https://img.hbhousing.com.tw/pictures/C140/C140JS99632a.jpg'],https://img.hbhousing.com.tw/pictures/C140/C140JS99632a.jpg,,,,,0.0,南投縣名間鄉華山街,1.8年,['D'],['D'],0,1538,63.89,67.64,1,63.89,4房3廳5衛,1-4,4,True,['6'],[],17,False,False,https://sinyi.in/o/JS99632HB/0/3,0,2,,1,False,False,551,,,4房3廳5衛,False,False,南投縣,Nantou-county,8,https://www.sinyi.com.tw/buy/list/Nantou-county/default-desc/8
,MS154392HB,南投千秋段優質農牧用地,23.911389,120.687468,['https://img.hbhousing.com.tw/pictures/C232/C232MS154392a.jpg'],https://img.hbhousing.com.tw/pictures/C232/C232MS154392a.jpg,,,,,0.0,南投縣南投市千秋段,--,['I'],['I'],0,3080,0.0,2120.85,0,-1.0,,0,0,False,,[],5,False,False,https://sinyi.in/o/MS154392HB/0/3,0,2,,3,False,False,540,,,,False,False,南投縣,Nantou-county,8,https://www.sinyi.com.tw/buy/list/Nantou-county/default-desc/8
,RS56262HB,南投草屯中正路大面寬農地,23.977686,120.778803,['https://img.hbhousing.com.tw/pictures/C218/C218RS56262a.jpg'],https://img.hbhousing.com.tw/pictures/C218/C218RS56262a.jpg,,,,,0.0,南投縣草屯鎮中正路,--,['I'],['I'],0,2678,0.0,826.74,0,-1.0,,0,0,False,,[],1,False,False,https://sinyi.in/o/RS56262HB/0/3,0,2,,3,False,False,542,,,,False,False,南投縣,Nantou-county,8,https://www.sinyi.com.tw/buy/list/Nantou-county/default-desc/8
,RS77810HB,888美農地,23.99747,120.65409,['https://img.hbhousing.com.tw/pictures/C303/C303RS77810a.jpg'],https://img.hbhousing.com.tw/pictures/C303/C303RS77810a.jpg,,,,,0.0,南投縣草屯鎮新光段,--,['I'],['I'],0,2860,0.0,888.14,0,-1.0,,0,0,False,,[],0,False,False,https://sinyi.in/o/RS77810HB/0/3,0,2,,3,False,False,542,,,,False,False,南投縣,Nantou-county,8,https://www.sinyi.com.tw/buy/list/Nantou-county/default-desc/8
,FS201602HB,竹山國小旁一般農地,23.757624,120.67144,['https://img.hbhousing.com.tw/pictures/D390/D390FS201602a.jpg'],https://img.hbhousing.com.tw/pictures/D390/D390FS201602a.jpg,,,,,0.0,南投縣竹山鎮照鏡段,--,['I'],['I'],0,1080,0.0,1181.03,0,-1.0,,0,0,False,,[],3,False,False,https://sinyi.in/o/FS201602HB/0/3,0,2,,3,False,False,557,,,,False,False,南投縣,Nantou-county,8,https://www.sinyi.com.tw/buy/list/Nantou-county/default-desc/8
,JS100506HB,近交流道面寬美平房,23.9761336588,120.989900995,['https://img.hbhousing.com.tw/pictures/C199/C199JS100506a.jpg'],https://img.hbhousing.com.tw/pictures/C199/C199JS100506a.jpg,,,,,0.0,南投縣埔里鎮蜈蚣路,45.7年,['K'],['K'],0,498,19.28,38.54,0,19.28,3房2廳1衛,1,1,False,,[],16,False,False,https://sinyi.in/o/JS100506HB/0/3,0,2,,1,False,False,545,,,3房2廳1衛,False,False,南投縣,Nantou-county,8,https://www.sinyi.com.tw/buy/list/Nantou-county/default-desc/8
,JS101294HB,南投中興國中可孝親車庫透天,23.9277077089,120.692795634,['https://img.hbhousing.com.tw/pictures/C303/C303JS101294a.jpg'],https://img.hbhousing.com.tw/pictures/C303/C303JS101294a.jpg,,,,,0.0,南投縣南投市中興路,35.8年,['D'],['D'],0,998,35.66,28.89,0,35.66,4房3廳3衛,1-3,3,True,['6'],[],29,False,False,https://sinyi.in/o/JS101294HB/0/3,0,2,,1,False,False,540,,,4房3廳3衛,False,False,南投縣,Nantou-county,8,https://www.sinyi.com.tw/buy/list/Nantou-county/default-desc/8
,JS102435HB,文教區旁美透天,23.9509181661,120.974291576,['https://img.hbhousing.com.tw/pictures/C199/C199JS102435a.jpg'],https://img.hbhousing.com.tw/pictures/C199/C199JS102435a.jpg,,,,,0.0,南投縣埔里鎮水頭路,33.4年,['D'],['D'],0,858,41.26,33.07,0,41.26,5房4廳3衛,1-4,0,True,['6'],[],9,False,False,https://sinyi.in/o/JS102435HB/0/3,0,2,,1,False,False,545,,,5房4廳3衛,False,False,南投縣,Nantou-county,8,https://www.sinyi.com.tw/buy/list/Nantou-county/default-desc/8
,JS102830HB,第三市場買地送屋,23.966496,120.969381,['https://img.hbhousing.com.tw/pictures/C199/C199JS102830a.jpg'],https://img.hbhousing.com.tw/pictures/C199/C199JS102830a.jpg,,,,,0.0,南投縣埔里鎮光明段,--,['I'],['I'],0,480,0.0,13.94,0,-1.0,2房2廳1衛,0,1,False,,[],6,False,False,https://sinyi.in/o/JS102830HB/0/3,0,2,,3,False,False,545,,,2房2廳1衛,False,False,南投縣,Nantou-county,9,https://www.sinyi.com.tw/buy/list/Nantou-county/default-desc/9
,JS95942HB,草屯中正家園大三房車位美廈,23.9905436114,120.688107393,['https://img.hbhousing.com.tw/pictures/C220/C220JS95942a.jpg'],https://img.hbhousing.com.tw/pictures/C220/C220JS95942a.jpg,,,,,0.0,南投縣草屯鎮中正路,30.5年,['L'],['L'],0,808,35.82,4.3,1,26.04,3房2廳2衛,5,12,True,['6'],[],17,False,False,https://sinyi.in/o/JS95942HB/0/3,0,2,,1,False,False,542,,,3房2廳2衛,False,False,南投縣,Nantou-county,9,https://www.sinyi.com.tw/buy/list/Nantou-county/default-desc/9
,JS97308HB,近水里國中美農地A,23.807062657786,120.85984467368,['https://img.hbhousing.com.tw/pictures/C105/C105JS97308a.jpg'],https://img.hbhousing.com.tw/pictures/C105/C105JS97308a.jpg,,,,,0.0,南投縣水里鄉成功路,--,['I'],['I'],0,598,0.0,1217.86,0,-1.0,,0,0,False,,[],6,False,False,https://sinyi.in/o/JS97308HB/0/3,0,2,,3,False,False,553,,,,False,False,南投縣,Nantou-county,9,https://www.sinyi.com.tw/buy/list/Nantou-county/default-desc/9
,JS98486HB,台灣之心都計内小田B,23.966496,120.969381,['https://img.hbhousing.com.tw/pictures/C199/C199JS98486a.jpg'],https://img.hbhousing.com.tw/pictures/C199/C199JS98486a.jpg,,,,,0.0,南投縣埔里鎮文頭股段,--,['I'],['I'],0,1116,0.0,186.15,0,-1.0,,0,0,False,,[],13,False,False,https://sinyi.in/o/JS98486HB/0/3,0,2,,3,False,False,545,,,,False,False,南投縣,Nantou-county,9,https://www.sinyi.com.tw/buy/list/Nantou-county/default-desc/9
,MS152664HB,九族全新民宿D,23.8734210212,120.944455899,['https://img.hbhousing.com.tw/pictures/C150/C150MS152664a.jpg'],https://img.hbhousing.com.tw/pictures/C150/C150MS152664a.jpg,,,,,0.0,南投縣魚池鄉金天巷,1.2年,['D'],['D'],0,2580,102.97,60.42,0,90.44,4房3廳5衛,1-5,5,True,['6'],[],20,False,False,https://sinyi.in/o/MS152664HB/0/3,0,2,,1,False,False,555,,,4房3廳5衛,False,False,南投縣,Nantou-county,9,https://www.sinyi.com.tw/buy/list/Nantou-county/default-desc/9
,MS98931HB,南投休息站休閒農地B,23.910862852675,120.72724841816,['https://img.hbhousing.com.tw/pictures/C105/C105MS98931a.jpg'],https://img.hbhousing.com.tw/pictures/C105/C105MS98931a.jpg,,,,,0.0,南投縣中寮鄉永平路,--,['I'],['I'],0,80,0.0,241.4,0,-1.0,,0,0,False,,[],4,False,False,https://sinyi.in/o/MS98931HB/0/3,0,2,,3,False,False,541,,,,False,False,南投縣,Nantou-county,9,https://www.sinyi.com.tw/buy/list/Nantou-county/default-desc/9
,OS223583HB,265完整2分半大小適中民宿首選,23.879003,120.767955,['https://img.hbhousing.com.tw/pictures/A346/A346OS223583a.jpg'],https://img.hbhousing.com.tw/pictures/A346/A346OS223583a.jpg,,,,,0.0,南投縣中寮鄉鄉親寮段,--,['I'],['I'],0,140,0.0,847.0,0,-1.0,,0,0,False,,[],22,False,False,https://sinyi.in/o/OS223583HB/0/3,0,2,,3,False,False,541,,,,False,False,南投縣,Nantou-county,9,https://www.sinyi.com.tw/buy/list/Nantou-county/default-desc/9
,RS34917HB,國姓正成功街都計內農地,24.037199291886,120.8516820358,['https://img.hbhousing.com.tw/pictures/C004/C004RS34917a.jpg'],https://img.hbhousing.com.tw/pictures/C004/C004RS34917a.jpg,,,,,0.0,南投縣國姓鄉成功段,--,['I'],['I'],0,1606,0.0,1460.32,0,-1.0,,0,0,False,,[],2,False,False,https://sinyi.in/o/RS34917HB/0/3,0,2,,3,False,False,544,,,,False,False,南投縣,Nantou-county,9,https://www.sinyi.com.tw/buy/list/Nantou-county/default-desc/9
,RS59631HB,小半天休閒農地,23.726749,120.757614,['https://img.hbhousing.com.tw/pictures/C105/C105RS59631a.jpg'],https://img.hbhousing.com.tw/pictures/C105/C105RS59631a.jpg,,,,,0.0,南投縣鹿谷鄉光復路,--,['I'],['I'],0,1780,0.0,11134.34,0,-1.0,,0,0,False,,[],10,False,False,https://sinyi.in/o/RS59631HB/0/3,0,2,,3,False,False,558,,,,False,False,南投縣,Nantou-county,9,https://www.sinyi.com.tw/buy/list/Nantou-county/default-desc/9
,RS88629HB,南投彰基嘉和國小旁建地,23.89755451974,120.68225044968,['https://img.hbhousing.com.tw/pictures/C239/C239RS88629a.jpg'],https://img.hbhousing.com.tw/pictures/C239/C239RS88629a.jpg,,,,,0.0,南投縣南投市大庄路,--,['I'],['I'],0,3688,0.0,248.66,0,-1.0,,0,0,False,,[],1,False,False,https://sinyi.in/o/RS88629HB/0/3,0,2,,3,False,False,540,,,,False,False,南投縣,Nantou-county,9,https://www.sinyi.com.tw/buy/list/Nantou-county/default-desc/9
,TS144836HB,D216南崗面寬乙工土地,23.94461,120.66428,['https://img.hbhousing.com.tw/pictures/A720/A720TS144836a.jpg'],https://img.hbhousing.com.tw/pictures/A720/A720TS144836a.jpg,,,,,0.0,南投縣南投市永興段,--,['I'],['I'],0,16610,0.0,755.0,0,-1.0,,0,0,False,,[],0,False,False,https://sinyi.in/o/TS144836HB/0/3,0,2,,3,False,False,540,,,,False,False,南投縣,Nantou-county,9,https://www.sinyi.com.tw/buy/list/Nantou-county/default-desc/9
,ES60991HB,近交流道國姓建地,24.005126,120.845887,['https://img.hbhousing.com.tw/pictures/C208/C208ES60991a.jpg'],https://img.hbhousing.com.tw/pictures/C208/C208ES60991a.jpg,,,,,0.0,南投縣國姓鄉中正路二段,--,['I'],['I'],0,588,0.0,81.68,0,-1.0,,0,0,False,,[],6,False,False,https://sinyi.in/o/ES60991HB/0/3,0,2,,3,False,False,544,,,,False,False,南投縣,Nantou-county,9,https://www.sinyi.com.tw/buy/list/Nantou-county/default-desc/9
,ES69140HB,埔里珠生路旁甲建+田,23.965433385838,120.9633870868,['https://img.hbhousing.com.tw/pictures/C309/C309ES69140a.jpg'],https://img.hbhousing.com.tw/pictures/C309/C309ES69140a.jpg,,,,,0.0,南投縣埔里鎮珠格段,--,['I'],['I'],0,1580,0.0,296.81,0,-1.0,,0,0,False,,[],7,False,False,https://sinyi.in/o/ES69140HB/0/3,0,2,,3,False,False,545,,,,False,False,南投縣,Nantou-county,9,https://www.sinyi.com.tw/buy/list/Nantou-county/default-desc/9
,JS100288HB,草屯富春路全新電梯雙車透天D,23.9792382296,120.702312779,['https://img.hbhousing.com.tw/pictures/C154/C154JS100288a.jpg'],https://img.hbhousing.com.tw/pictures/C154/C154JS100288a.jpg,,,,,0.0,南投縣草屯鎮富春路,1.1年,['D'],['D'],0,2580,60.18,30.95,1,60.18,4房2廳5衛,1-4,4,True,['6'],[],11,False,False,https://sinyi.in/o/JS100288HB/0/3,0,2,,1,False,False,542,,,4房2廳5衛,False,False,南投縣,Nantou-county,9,https://www.sinyi.com.tw/buy/list/Nantou-county/default-desc/9
,JS96850HB,紫南宮旁現買現收黃金果農地,23.814095,120.712278,['https://img.hbhousing.com.tw/pictures/C290/C290JS96850a.jpg'],https://img.hbhousing.com.tw/pictures/C290/C290JS96850a.jpg,,,,,0.0,南投縣竹山鎮南雲段,--,['I'],['I'],0,1260,0.0,1338.13,0,-1.0,,1,0,False,,[],3,False,False,https://sinyi.in/o/JS96850HB/0/3,0,2,,3,False,False,557,,,,False,False,南投縣,Nantou-county,9,https://www.sinyi.com.tw/buy/list/Nantou-county/default-desc/9
,JS97415HB,南投埔里東潤路農地,23.934767193207,120.98998295633,['https://img.hbhousing.com.tw/pictures/C218/C218JS97415a.jpg'],https://img.hbhousing.com.tw/pictures/C218/C218JS97415a.jpg,,,,,0.0,南投縣埔里鎮東埔段,--,['I'],['I'],0,2788,0.0,1640.22,0,-1.0,,0,0,False,,[],7,False,False,https://sinyi.in/o/JS97415HB/0/3,0,2,,3,False,False,545,,,,False,False,南投縣,Nantou-county,9,https://www.sinyi.com.tw/buy/list/Nantou-county/default-desc/9
,JS97671HB,近麗寶景闊美田,23.966496,120.969381,['https://img.hbhousing.com.tw/pictures/C199/C199JS97671a.jpg'],https://img.hbhousing.com.tw/pictures/C199/C199JS97671a.jpg,,,,,0.0,南投縣埔里鎮向善段,--,['I'],['I'],0,1392,0.0,773.31,0,-1.0,,0,0,False,,[],4,False,False,https://sinyi.in/o/JS97671HB/0/3,0,2,,3,False,False,545,,,,False,False,南投縣,Nantou-county,9,https://www.sinyi.com.tw/buy/list/Nantou-county/default-desc/9
,JS98066HB,實驗林旁南安建地,23.966496,120.969381,['https://img.hbhousing.com.tw/pictures/C199/C199JS98066a.jpg'],https://img.hbhousing.com.tw/pictures/C199/C199JS98066a.jpg,,,,,0.0,南投縣埔里鎮南光段,--,['I'],['I'],0,1565,0.0,58.38,0,-1.0,,0,0,False,,[],16,False,False,https://sinyi.in/o/JS98066HB/0/3,0,2,,3,False,False,545,,,,False,False,南投縣,Nantou-county,9,https://www.sinyi.com.tw/buy/list/Nantou-county/default-desc/9
,JS98930HB,中興學區旁前院美墅(A1),23.9321266248,120.697605749,['https://img.hbhousing.com.tw/pictures/C275/C275JS98930a.jpg'],https://img.hbhousing.com.tw/pictures/C275/C275JS98930a.jpg,,,,,0.0,南投縣南投市南新路,3.0年,['D'],['D'],0,2388,59.76,30.21,1,59.76,4房3廳5衛,1-4,4,True,['6'],[],29,False,False,https://sinyi.in/o/JS98930HB/0/3,0,2,,1,False,False,540,,,4房3廳5衛,False,False,南投縣,Nantou-county,9,https://www.sinyi.com.tw/buy/list/Nantou-county/default-desc/9
,JS98939HB,竹山集山旺店住A1,23.7718731866,120.707362346,['https://img.hbhousing.com.tw/pictures/C204/C204JS98939a.jpg'],https://img.hbhousing.com.tw/pictures/C204/C204JS98939a.jpg,,,,,0.0,南投縣竹山鎮集山路二段,2.6年,['D'],['D'],0,1288,52.7,56.39,1,52.7,4房1廳3衛,1-3,3,True,['6'],[],19,False,False,https://sinyi.in/o/JS98939HB/0/3,0,2,,1,False,False,557,,,4房1廳3衛,False,False,南投縣,Nantou-county,9,https://www.sinyi.com.tw/buy/list/Nantou-county/default-desc/9
,JS99415HB,八卦路大地坪透天,23.91845418648,120.63753062074,['https://img.hbhousing.com.tw/pictures/C105/C105JS99415a.jpg'],https://img.hbhousing.com.tw/pictures/C105/C105JS99415a.jpg,,,,,0.0,南投縣南投市八卦路,48.2年,['D'],['D'],0,798,48.21,38.78,0,48.21,5房3廳3衛,1-3,0,True,['6'],[],20,False,False,https://sinyi.in/o/JS99415HB/0/3,0,2,,1,False,False,540,,,5房3廳3衛,False,False,南投縣,Nantou-county,10,https://www.sinyi.com.tw/buy/list/Nantou-county/default-desc/10
,MS134960HB,埔里露營合法民宿觀光教育農場,23.9586492285,120.94491722,['https://img.hbhousing.com.tw/pictures/C038/C038MS134960a.jpg'],https://img.hbhousing.com.tw/pictures/C038/C038MS134960a.jpg,,,,,0.0,南投縣埔里鎮桃米路,9.6年,['D'],['D'],0,9300,234.97,2212.02,0,234.97,10房3廳10衛,1-3,3,True,['6'],[],6,False,False,https://sinyi.in/o/MS134960HB/0/3,0,2,,1,False,False,545,,,10房3廳10衛,False,False,南投縣,Nantou-county,10,https://www.sinyi.com.tw/buy/list/Nantou-county/default-desc/10
,RS74834HB,百坪面寬華麗電梯別墅,23.9755293486,120.942207805,['https://img.hbhousing.com.tw/pictures/C199/C199RS74834a.jpg'],https://img.hbhousing.com.tw/pictures/C199/C199RS74834a.jpg,,,,,0.0,南投縣埔里鎮鐵山路,2.8年,['D'],['D'],0,3880,91.06,103.03,1,91.06,4房2廳5衛,1-4,4,False,,[],16,False,False,https://sinyi.in/o/RS74834HB/0/3,0,2,,1,False,False,545,,,4房2廳5衛,False,False,南投縣,Nantou-county,10,https://www.sinyi.com.tw/buy/list/Nantou-county/default-desc/10
,RS75065HB,秀山新苑大三房平車戶,23.9645601831,120.687526746,['https://img.hbhousing.com.tw/pictures/C140/C140RS75065a.jpg'],https://img.hbhousing.com.tw/pictures/C140/C140RS75065a.jpg,,,,,0.0,南投縣草屯鎮虎山路,30.4年,['M'],['M'],0,868,41.71,9.38,0,26.1,3房2廳2衛,1,10,True,['6'],[],22,False,False,https://sinyi.in/o/RS75065HB/0/3,0,2,,1,False,False,542,,,3房2廳2衛,False,False,南投縣,Nantou-county,10,https://www.sinyi.com.tw/buy/list/Nantou-county/default-desc/10
,RS77806HB,草屯和平街市區透天,23.9794101924,120.682694083,['https://img.hbhousing.com.tw/pictures/C303/C303RS77806a.jpg'],https://img.hbhousing.com.tw/pictures/C303/C303RS77806a.jpg,,,,,0.0,南投縣草屯鎮和平街,56.1年,['D'],['D'],0,768,34.6,17.24,0,34.6,4房2廳2衛,1-3,0,False,,[],0,False,False,https://sinyi.in/o/RS77806HB/0/3,0,2,,1,False,False,542,,,4房2廳2衛,False,False,南投縣,Nantou-county,10,https://www.sinyi.com.tw/buy/list/Nantou-county/default-desc/10
,JS101319HB,寶雄臻澄B1｜黃金學區宅,23.761697668,120.689167133,['https://img.hbhousing.com.tw/pictures/C290/C290JS101319a.jpg'],https://img.hbhousing.com.tw/pictures/C290/C290JS101319a.jpg,,,,,0.0,南投縣竹山鎮大義街,1.2年,['D'],['D'],0,1558,61.22,30.67,1,61.22,4房2廳5衛,1-3,0,False,,[],18,False,False,https://sinyi.in/o/JS101319HB/0/3,0,2,,1,False,False,557,,,4房2廳5衛,False,False,南投縣,Nantou-county,10,https://www.sinyi.com.tw/buy/list/Nantou-county/default-desc/10
,JS95706HB,埔里山城震後美墅,23.9520738133,120.95444669,['https://img.hbhousing.com.tw/pictures/C199/C199JS95706a.jpg'],https://img.hbhousing.com.tw/pictures/C199/C199JS95706a.jpg,,,,,0.0,南投縣埔里鎮珠生路,19.1年,['D'],['D'],0,1520,122.83,66.01,0,122.83,14房3廳14衛,-1-5,0,False,,[],10,False,False,https://sinyi.in/o/JS95706HB/0/3,0,2,,1,False,False,545,,,14房3廳14衛,False,False,南投縣,Nantou-county,10,https://www.sinyi.com.tw/buy/list/Nantou-county/default-desc/10
,JS95785HB,中興新村合法獨棟農舍,23.952967473979,120.68211354166,['https://img.hbhousing.com.tw/pictures/C140/C140JS95785a.jpg'],https://img.hbhousing.com.tw/pictures/C140/C140JS95785a.jpg,,,,,0.0,南投縣南投市向陽路,16.1年,['D'],['D'],0,4566,48.32,205.1,1,45.41,5房2廳6衛,1-2,0,True,['6'],[],33,False,False,https://sinyi.in/o/JS95785HB/0/3,0,2,,1,False,False,540,,,5房2廳6衛,False,False,南投縣,Nantou-county,10,https://www.sinyi.com.tw/buy/list/Nantou-county/default-desc/10
,JS96252HB,專簽草屯登輝路百坪建地超值,23.988852,120.690753,['https://img.hbhousing.com.tw/pictures/C154/C154JS96252a.jpg'],https://img.hbhousing.com.tw/pictures/C154/C154JS96252a.jpg,,,,,0.0,南投縣草屯鎮登輝路,--,['I'],['I'],0,2450,0.0,175.06,0,-1.0,,0,0,False,,[],30,False,False,https://sinyi.in/o/JS96252HB/0/3,0,2,,3,False,False,542,,,,False,False,南投縣,Nantou-county,10,https://www.sinyi.com.tw/buy/list/Nantou-county/default-desc/10
,JS96580HB,南投正市區超值小透天,23.905929542635,120.68717257941,['https://img.hbhousing.com.tw/pictures/C140/C140JS96580a.jpg'],https://img.hbhousing.com.tw/pictures/C140/C140JS96580a.jpg,,,,,0.0,南投縣南投市中山街,--,['I'],['I'],0,498,0.0,16.94,0,-1.0,3房2廳1衛,1-2,2,False,,[],16,False,False,https://sinyi.in/o/JS96580HB/0/3,0,2,,3,False,False,540,,,3房2廳1衛,False,False,南投縣,Nantou-county,10,https://www.sinyi.com.tw/buy/list/Nantou-county/default-desc/10
,JS97162HB,親子憶境花園別墅,23.9801823192,120.946954659,['https://img.hbhousing.com.tw/pictures/C199/C199JS97162a.jpg'],https://img.hbhousing.com.tw/pictures/C199/C199JS97162a.jpg,,,,,0.0,南投縣埔里鎮房里路,33.9年,['K'],['K'],0,3460,71.24,604.63,0,71.24,5房2廳5衛,1-2,2,False,,[],9,False,False,https://sinyi.in/o/JS97162HB/0/3,0,2,,1,False,False,545,,,5房2廳5衛,False,False,南投縣,Nantou-county,10,https://www.sinyi.com.tw/buy/list/Nantou-county/default-desc/10
,JS99163HB,近家樂福建地,23.906952202433,120.69052841319,['https://img.hbhousing.com.tw/pictures/C105/C105JS99163a.jpg'],https://img.hbhousing.com.tw/pictures/C105/C105JS99163a.jpg,,,,,0.0,南投縣南投市中興路,--,['I'],['I'],0,588,0.0,22.38,0,-1.0,,0,0,False,,[],9,False,False,https://sinyi.in/o/JS99163HB/0/3,0,2,,3,False,False,540,,,,False,False,南投縣,Nantou-county,10,https://www.sinyi.com.tw/buy/list/Nantou-county/default-desc/10
,JS99263HB,中興系統交流道農舍,23.961165348535,120.66627577907,['https://img.hbhousing.com.tw/pictures/C140/C140JS99263a.jpg'],https://img.hbhousing.com.tw/pictures/C140/C140JS99263a.jpg,,,,,0.0,南投縣草屯鎮碧峰路,35.8年,['K'],['K'],0,2860,64.36,569.91,1,64.36,7房2廳2衛,1-2,0,False,,[],6,False,False,https://sinyi.in/o/JS99263HB/0/3,0,2,,1,False,False,542,,,7房2廳2衛,False,False,南投縣,Nantou-county,10,https://www.sinyi.com.tw/buy/list/Nantou-county/default-desc/10
,MS151367HB,鹿谷小半天香蕉園＋全新資材室B,23.765087440899,120.73337984947,['https://img.hbhousing.com.tw/pictures/C297/C297MS151367a.jpg'],https://img.hbhousing.com.tw/pictures/C297/C297MS151367a.jpg,,,,,0.0,南投縣鹿谷鄉中正路三段,--,['I'],['I'],0,1180,0.0,411.32,0,-1.0,,0,0,False,,[],8,False,False,https://sinyi.in/o/MS151367HB/0/3,0,2,,3,False,False,558,,,,False,False,南投縣,Nantou-county,10,https://www.sinyi.com.tw/buy/list/Nantou-county/default-desc/10
,RS68246HB,觀光勝地大面寬建地,23.967811,120.998641,['https://img.hbhousing.com.tw/pictures/C199/C199RS68246a.jpg'],https://img.hbhousing.com.tw/pictures/C199/C199RS68246a.jpg,,,,,0.0,南投縣埔里鎮鯉魚路,--,['I'],['I'],0,1250,0.0,88.09,0,-1.0,,0,0,False,,[],2,False,False,https://sinyi.in/o/RS68246HB/0/3,0,2,,3,False,False,545,,,,False,False,南投縣,Nantou-county,10,https://www.sinyi.com.tw/buy/list/Nantou-county/default-desc/10
,JS102554HB,南基電梯透天,23.898772797955,120.68428063998,['https://img.hbhousing.com.tw/pictures/C316/C316JS102554a.jpg'],https://img.hbhousing.com.tw/pictures/C316/C316JS102554a.jpg,,,,,0.0,南投縣南投市彰南路一段,26.3年,['D'],['D'],0,1780,33.95,19.66,0,33.95,4房4廳5衛,1-5,5,False,,[],1,False,False,https://sinyi.in/o/JS102554HB/0/3,0,2,,1,False,False,540,,,4房4廳5衛,False,False,南投縣,Nantou-county,10,https://www.sinyi.com.tw/buy/list/Nantou-county/default-desc/10
,JS99025HB,南中寮炮哥親水畔千坪乙建地,23.879176,120.766474,['https://img.hbhousing.com.tw/pictures/C303/C303JS99025a.jpg'],https://img.hbhousing.com.tw/pictures/C303/C303JS99025a.jpg,,,,,0.0,南投縣中寮鄉二重溪段,--,['I'],['I'],0,9668,0.0,1487.52,0,-1.0,,0,0,False,,[],3,False,False,https://sinyi.in/o/JS99025HB/0/3,0,2,,3,False,False,541,,,,False,False,南投縣,Nantou-county,10,https://www.sinyi.com.tw/buy/list/Nantou-county/default-desc/10
,RS67031HB,中興學區旁電梯雙車美墅,23.927616,120.697313,['https://img.hbhousing.com.tw/pictures/C275/C275RS67031a.jpg'],https://img.hbhousing.com.tw/pictures/C275/C275RS67031a.jpg,,,,,0.0,南投縣南投市南新路,5.0年,['D'],['D'],0,2138,61.74,38.35,0,54.05,4房3廳5衛,1-4,0,False,,[],16,False,False,https://sinyi.in/o/RS67031HB/0/3,0,2,,1,False,False,540,,,4房3廳5衛,False,False,南投縣,Nantou-county,10,https://www.sinyi.com.tw/buy/list/Nantou-county/default-desc/10
,RS78156HB,優質雙學區買地送屋,23.9571313342,120.970624104,['https://img.hbhousing.com.tw/pictures/C199/C199RS78156a.jpg'],https://img.hbhousing.com.tw/pictures/C199/C199RS78156a.jpg,,,,,0.0,南投縣埔里鎮東興三街,19.3年,['K'],['K'],0,698,5.05,32.97,0,5.05,1廳,1-2,0,False,,[],6,False,False,https://sinyi.in/o/RS78156HB/0/3,0,2,,1,False,False,545,,,1廳,False,False,南投縣,Nantou-county,10,https://www.sinyi.com.tw/buy/list/Nantou-county/default-desc/10
,RS90975HB,集集全新透天,23.8313325126,120.797619423,['https://img.hbhousing.com.tw/pictures/C288/C288RS90975a.jpg'],https://img.hbhousing.com.tw/pictures/C288/C288RS90975a.jpg,,,,,0.0,南投縣集集鎮文心街,2.1年,['D'],['D'],0,1650,78.09,49.51,1,78.09,4房2廳4衛,1-3,3,False,,[],13,False,False,https://sinyi.in/o/RS90975HB/0/3,0,2,,1,False,False,552,,,4房2廳4衛,False,False,南投縣,Nantou-county,10,https://www.sinyi.com.tw/buy/list/Nantou-county/default-desc/10
,RS93965HB,竹山延豐段大地坪菇寮,23.7620569016,120.718966656,['https://img.hbhousing.com.tw/pictures/C322/C322RS93965a.jpg'],https://img.hbhousing.com.tw/pictures/C322/C322RS93965a.jpg,,,,,0.0,南投縣竹山鎮延山路,19.2年,['K'],['K'],0,5830,1263.19,2176.32,0,1263.19,,1,1,False,,[],5,False,False,https://sinyi.in/o/RS93965HB/0/3,0,2,,1,False,False,557,,,,False,False,南投縣,Nantou-county,11,https://www.sinyi.com.tw/buy/list/Nantou-county/default-desc/11
,ES73136HB,🌾水里郡坑國小農地,23.72168,120.85393,['https://img.hbhousing.com.tw/pictures/C101/C101ES73136a.jpg'],https://img.hbhousing.com.tw/pictures/C101/C101ES73136a.jpg,,,,,0.0,南投縣水里鄉新上安段,--,['I'],['I'],0,280,0.0,1666.61,0,-1.0,,0,0,False,,[],5,False,False,https://sinyi.in/o/ES73136HB/0/3,0,2,,3,False,False,553,,,,False,False,南投縣,Nantou-county,11,https://www.sinyi.com.tw/buy/list/Nantou-county/default-desc/11
,JS96512HB,幸福臻美田,23.966496,120.969381,['https://img.hbhousing.com.tw/pictures/C199/C199JS96512a.jpg'],https://img.hbhousing.com.tw/pictures/C199/C199JS96512a.jpg,,,,,0.0,南投縣埔里鎮水源段,--,['I'],['I'],0,2289,0.0,962.12,0,-1.0,,0,0,False,,[],0,False,False,https://sinyi.in/o/JS96512HB/0/3,0,2,,3,False,False,545,,,,False,False,南投縣,Nantou-county,11,https://www.sinyi.com.tw/buy/list/Nantou-county/default-desc/11
,JS96869HB,鯉魚路大面寬農地,23.966496,120.969381,['https://img.hbhousing.com.tw/pictures/C199/C199JS96869a.jpg'],https://img.hbhousing.com.tw/pictures/C199/C199JS96869a.jpg,,,,,0.0,南投縣埔里鎮鯉魚潭段,--,['I'],['I'],0,2500,0.0,781.78,0,-1.0,,0,0,False,,[],0,False,False,https://sinyi.in/o/JS96869HB/0/3,0,2,,3,False,False,545,,,,False,False,南投縣,Nantou-county,11,https://www.sinyi.com.tw/buy/list/Nantou-county/default-desc/11
,JS96936HB,近竹山國小臨路千坪休閒農地,23.76482,120.68326,['https://img.hbhousing.com.tw/pictures/C290/C290JS96936a.jpg'],https://img.hbhousing.com.tw/pictures/C290/C290JS96936a.jpg,,,,,0.0,南投縣竹山鎮安定段,--,['I'],['I'],0,1988,0.0,1059.83,0,-1.0,,1,0,False,,[],2,False,False,https://sinyi.in/o/JS96936HB/0/3,0,2,,3,False,False,557,,,,False,False,南投縣,Nantou-county,11,https://www.sinyi.com.tw/buy/list/Nantou-county/default-desc/11
,JS96938HB,草屯烏溪橋旁便宜農地,23.999041404887,120.6899546606,['https://img.hbhousing.com.tw/pictures/C105/C105JS96938a.jpg'],https://img.hbhousing.com.tw/pictures/C105/C105JS96938a.jpg,,,,,0.0,南投縣草屯鎮中正路,--,['I'],['I'],0,798,0.0,828.63,0,-1.0,,0,0,False,,[],10,False,False,https://sinyi.in/o/JS96938HB/0/3,0,2,,3,False,False,542,,,,False,False,南投縣,Nantou-county,11,https://www.sinyi.com.tw/buy/list/Nantou-county/default-desc/11
,JS97753HB,草屯永安路旁農地,23.99176878989,120.72068087188,['https://img.hbhousing.com.tw/pictures/C105/C105JS97753a.jpg'],https://img.hbhousing.com.tw/pictures/C105/C105JS97753a.jpg,,,,,0.0,南投縣草屯鎮永安路,--,['I'],['I'],0,888,0.0,982.82,0,-1.0,,0,0,False,,[],13,False,False,https://sinyi.in/o/JS97753HB/0/3,0,2,,3,False,False,542,,,,False,False,南投縣,Nantou-county,11,https://www.sinyi.com.tw/buy/list/Nantou-county/default-desc/11
,JS98095HB,南投千萬級裝潢尊榮宅,23.925443098,120.663479141,['https://img.hbhousing.com.tw/pictures/C303/C303JS98095a.jpg'],https://img.hbhousing.com.tw/pictures/C303/C303JS98095a.jpg,,,,,0.0,南投縣南投市同源路九街,3.1年,['D'],['D'],0,3500,78.95,37.51,0,78.95,6房3廳7衛,1-3,0,True,['6'],[],17,False,False,https://sinyi.in/o/JS98095HB/0/3,0,2,,1,False,False,540,,,6房3廳7衛,False,False,南投縣,Nantou-county,11,https://www.sinyi.com.tw/buy/list/Nantou-county/default-desc/11
,LS129020HB,埔里大地坪新雙棟電梯民宿,23.958376,120.974353,['https://img.hbhousing.com.tw/pictures/D530/D530LS129020a.jpg'],https://img.hbhousing.com.tw/pictures/D530/D530LS129020a.jpg,,,,,0.0,南投縣埔里鎮東興一街,4.0年,['D'],['D'],0,7960,148.64,114.78,0,128.98,12房12衛,1-4,4,False,,[],8,False,False,https://sinyi.in/o/LS129020HB/0/3,0,2,,1,False,False,545,,,12房12衛,False,False,南投縣,Nantou-county,11,https://www.sinyi.com.tw/buy/list/Nantou-county/default-desc/11
,MS151266HB,近草屯市區北投段2分半農地,23.979741133407,120.67050006341,['https://img.hbhousing.com.tw/pictures/C230/C230MS151266a.jpg'],https://img.hbhousing.com.tw/pictures/C230/C230MS151266a.jpg,,,,,0.0,南投縣草屯鎮北投段,--,['I'],['I'],0,2422,0.0,756.86,0,-1.0,,0,0,False,,[],0,False,False,https://sinyi.in/o/MS151266HB/0/3,0,2,,3,False,False,542,,,,False,False,南投縣,Nantou-county,11,https://www.sinyi.com.tw/buy/list/Nantou-county/default-desc/11
,RS65607HB,水里新上安段方正農地,23.724773806863,120.85412423609,['https://img.hbhousing.com.tw/pictures/C105/C105RS65607a.jpg'],https://img.hbhousing.com.tw/pictures/C105/C105RS65607a.jpg,,,,,0.0,南投縣水里鄉永福路,--,['I'],['I'],0,198,0.0,563.42,0,-1.0,,0,0,False,,[],12,False,False,https://sinyi.in/o/RS65607HB/0/3,0,2,,3,False,False,553,,,,False,False,南投縣,Nantou-county,11,https://www.sinyi.com.tw/buy/list/Nantou-county/default-desc/11
,TS141106HB,C216南投埔里桃米景觀民宿,23.9330899141,120.907665325,['https://img.hbhousing.com.tw/pictures/A720/A720TS141106a.jpg'],https://img.hbhousing.com.tw/pictures/A720/A720TS141106a.jpg,,,,,0.0,南投縣埔里鎮水上巷,18.0年,['K'],['K'],0,5980,171.86,4253.15,0,171.86,9房4廳10衛,1-2,2,False,,[],11,False,False,https://sinyi.in/o/TS141106HB/0/3,0,2,,1,False,False,545,,,9房4廳10衛,False,False,南投縣,Nantou-county,11,https://www.sinyi.com.tw/buy/list/Nantou-county/default-desc/11
,JS101639HB,大雁山坡景觀收益農地B,23.896035,120.934915,['https://img.hbhousing.com.tw/pictures/C154/C154JS101639a.jpg'],https://img.hbhousing.com.tw/pictures/C154/C154JS101639a.jpg,,,,,0.0,南投縣魚池鄉大雁段,--,['I'],['I'],0,1028,0.0,3692.92,0,-1.0,,0,0,False,,[],0,False,False,https://sinyi.in/o/JS101639HB/0/3,0,2,,3,False,False,555,,,,False,False,南投縣,Nantou-county,11,https://www.sinyi.com.tw/buy/list/Nantou-county/default-desc/11
,JS101641HB,大雁山坡低總價收益農地C,23.896035,120.934915,['https://img.hbhousing.com.tw/pictures/C154/C154JS101641a.jpg'],https://img.hbhousing.com.tw/pictures/C154/C154JS101641a.jpg,,,,,0.0,南投縣魚池鄉大雁段,--,['I'],['I'],0,298,0.0,1086.27,0,-1.0,,0,0,False,,[],0,False,False,https://sinyi.in/o/JS101641HB/0/3,0,2,,3,False,False,555,,,,False,False,南投縣,Nantou-county,11,https://www.sinyi.com.tw/buy/list/Nantou-county/default-desc/11
,JS101883HB,草屯大觀市場低總價投資型透天,23.981994936,120.683854036,['https://img.hbhousing.com.tw/pictures/C303/C303JS101883a.jpg'],https://img.hbhousing.com.tw/pictures/C303/C303JS101883a.jpg,,,,,0.0,南投縣草屯鎮中山街,56.4年,['D'],['D'],0,480,21.43,16.12,0,21.43,4房1廳1衛,1-2,2,False,,[],18,False,False,https://sinyi.in/o/JS101883HB/0/3,0,2,,1,False,False,542,,,4房1廳1衛,False,False,南投縣,Nantou-county,11,https://www.sinyi.com.tw/buy/list/Nantou-county/default-desc/11
,JS102617HB,草屯寶島時代村旁低總價3房華廈,23.9905436114,120.688107393,['https://img.hbhousing.com.tw/pictures/C303/C303JS102617a.jpg'],https://img.hbhousing.com.tw/pictures/C303/C303JS102617a.jpg,,,,,0.0,南投縣草屯鎮中正路,30.5年,['M'],['M'],0,538,27.11,3.31,1,21.56,3房2廳2衛,6,12,False,,[],1,False,False,https://sinyi.in/o/JS102617HB/0/3,0,2,,1,False,False,542,,,3房2廳2衛,False,False,南投縣,Nantou-county,11,https://www.sinyi.com.tw/buy/list/Nantou-county/default-desc/11
,JS95232HB,魚池金龍曙光旁美田（可分售）,23.896035,120.934915,['https://img.hbhousing.com.tw/pictures/C199/C199JS95232a.jpg'],https://img.hbhousing.com.tw/pictures/C199/C199JS95232a.jpg,,,,,0.0,南投縣魚池鄉茅埔段,--,['I'],['I'],0,1500,0.0,1207.28,0,-1.0,,0,0,False,,[],3,False,False,https://sinyi.in/o/JS95232HB/0/3,0,2,,3,False,False,555,,,,False,False,南投縣,Nantou-county,11,https://www.sinyi.com.tw/buy/list/Nantou-county/default-desc/11
,JS96092HB,臨延正路20米面寬方正都內農地,23.769859,120.704329,['https://img.hbhousing.com.tw/pictures/C290/C290JS96092a.jpg'],https://img.hbhousing.com.tw/pictures/C290/C290JS96092a.jpg,,,,,0.0,南投縣竹山鎮平正段,--,['I'],['I'],0,978,0.0,348.03,0,-1.0,,1,0,False,,[],1,False,False,https://sinyi.in/o/JS96092HB/0/3,0,2,,3,False,False,557,,,,False,False,南投縣,Nantou-county,11,https://www.sinyi.com.tw/buy/list/Nantou-county/default-desc/11
,JS98068HB,蜜蜂王國風光美田,23.966496,120.969381,['https://img.hbhousing.com.tw/pictures/C199/C199JS98068a.jpg'],https://img.hbhousing.com.tw/pictures/C199/C199JS98068a.jpg,,,,,0.0,南投縣埔里鎮珠格段,--,['I'],['I'],0,1638,0.0,861.99,0,-1.0,,0,0,False,,[],0,False,False,https://sinyi.in/o/JS98068HB/0/3,0,2,,3,False,False,545,,,,False,False,南投縣,Nantou-county,11,https://www.sinyi.com.tw/buy/list/Nantou-county/default-desc/11
,MS144583HB,中寮近永康國小乙建及農地,23.8873,120.737624,['https://img.hbhousing.com.tw/pictures/C268/C268MS144583a.jpg'],https://img.hbhousing.com.tw/pictures/C268/C268MS144583a.jpg,,,,,0.0,南投縣中寮鄉新二重溪,--,['I'],['I'],0,1188,0.0,1223.29,0,-1.0,,0,0,False,,[],2,False,False,https://sinyi.in/o/MS144583HB/0/3,0,2,,3,False,False,541,,,,False,False,南投縣,Nantou-county,11,https://www.sinyi.com.tw/buy/list/Nantou-county/default-desc/11
,RS71662HB,近中投公路建地,23.997599275409,120.67995810422,['https://img.hbhousing.com.tw/pictures/C105/C105RS71662a.jpg'],https://img.hbhousing.com.tw/pictures/C105/C105RS71662a.jpg,,,,,0.0,南投縣草屯鎮新豐路,--,['I'],['I'],0,3096,0.0,86.03,0,-1.0,,0,0,False,,[],10,False,False,https://sinyi.in/o/RS71662HB/0/3,0,2,,3,False,False,542,,,,False,False,南投縣,Nantou-county,12,https://www.sinyi.com.tw/buy/list/Nantou-county/default-desc/12
,ES48616HB,中寮泡麵土地公大塊山坡地,23.879176,120.766474,['https://img.hbhousing.com.tw/pictures/C207/C207ES48616a.jpg'],https://img.hbhousing.com.tw/pictures/C207/C207ES48616a.jpg,,,,,0.0,南投縣中寮鄉分水寮段,--,['I'],['I'],0,2520,0.0,12509.89,0,-1.0,,0,0,False,,[],0,False,False,https://sinyi.in/o/ES48616HB/0/3,0,2,,3,False,False,541,,,,False,False,南投縣,Nantou-county,12,https://www.sinyi.com.tw/buy/list/Nantou-county/default-desc/12
,JS101253HB,獨家-埔里豪宅區景觀農+建B,23.95027,120.95588,['https://img.hbhousing.com.tw/pictures/C303/C303JS101253a.jpg'],https://img.hbhousing.com.tw/pictures/C303/C303JS101253a.jpg,,,,,0.0,南投縣埔里鎮溪南段,--,['I'],['I'],0,1380,0.0,200.39,0,-1.0,,0,0,False,,[],10,False,False,https://sinyi.in/o/JS101253HB/0/3,0,2,,3,False,False,545,,,,False,False,南投縣,Nantou-county,12,https://www.sinyi.com.tw/buy/list/Nantou-county/default-desc/12
,JS101538HB,延平學區金雞母補教店面(B),23.767662049,120.706809984,['https://img.hbhousing.com.tw/pictures/C290/C290JS101538a.jpg'],https://img.hbhousing.com.tw/pictures/C290/C290JS101538a.jpg,,,,,0.0,南投縣竹山鎮集山路二段,17.4年,['D'],['D'],0,1656,102.48,63.26,0,102.48,6房3廳6衛,1-3,0,False,,[],4,False,False,https://sinyi.in/o/JS101538HB/0/3,0,2,,1,False,False,557,,,6房3廳6衛,False,False,南投縣,Nantou-county,12,https://www.sinyi.com.tw/buy/list/Nantou-county/default-desc/12
,JS102320HB,草屯新光段大坪數大面寬農地,23.974243,120.680671,['https://img.hbhousing.com.tw/pictures/C303/C303JS102320a.jpg'],https://img.hbhousing.com.tw/pictures/C303/C303JS102320a.jpg,,,,,0.0,南投縣草屯鎮新光段,--,['I'],['I'],0,4500,0.0,1055.12,0,-1.0,,0,0,False,,[],0,False,False,https://sinyi.in/o/JS102320HB/0/3,0,2,,3,False,False,542,,,,False,False,南投縣,Nantou-county,12,https://www.sinyi.com.tw/buy/list/Nantou-county/default-desc/12
,JS94978HB,文教區美屋,23.9681938222,120.952039558,['https://img.hbhousing.com.tw/pictures/C199/C199JS94978a.jpg'],https://img.hbhousing.com.tw/pictures/C199/C199JS94978a.jpg,,,,,0.0,南投縣埔里鎮安八街,29.9年,['D'],['D'],0,868,53.38,26.48,1,53.38,3房4廳4衛,1-4,4,False,,[],19,False,False,https://sinyi.in/o/JS94978HB/0/3,0,2,,1,False,False,545,,,3房4廳4衛,False,False,南投縣,Nantou-county,12,https://www.sinyi.com.tw/buy/list/Nantou-county/default-desc/12
,JS95737HB,彰南路低總價透天,23.936851403957,120.67245440625,['https://img.hbhousing.com.tw/pictures/C105/C105JS95737a.jpg'],https://img.hbhousing.com.tw/pictures/C105/C105JS95737a.jpg,,,,,0.0,南投縣南投市彰南路三段,46.4年,['D'],['D'],0,520,30.33,20.95,0,30.33,4房3廳3衛,1-2,0,True,['6'],[],32,False,False,https://sinyi.in/o/JS95737HB/0/3,0,2,,1,False,False,540,,,4房3廳3衛,False,False,南投縣,Nantou-county,12,https://www.sinyi.com.tw/buy/list/Nantou-county/default-desc/12
,JS97499HB,都計内住宅建地,23.966496,120.969381,['https://img.hbhousing.com.tw/pictures/C199/C199JS97499a.jpg'],https://img.hbhousing.com.tw/pictures/C199/C199JS97499a.jpg,,,,,0.0,南投縣埔里鎮忠貞段,--,['I'],['I'],0,1106,0.0,96.19,0,-1.0,,0,0,False,,[],2,False,False,https://sinyi.in/o/JS97499HB/0/3,0,2,,3,False,False,545,,,,False,False,南投縣,Nantou-county,12,https://www.sinyi.com.tw/buy/list/Nantou-county/default-desc/12
,JS99830HB,全新免七百萬成家兩房平車,23.946338,120.661581,['https://img.hbhousing.com.tw/pictures/C140/C140JS99830a.jpg'],https://img.hbhousing.com.tw/pictures/C140/C140JS99830a.jpg,,,,,0.0,南投縣南投市彰南路三段,0.8年,['M'],['M'],0,680,35.23,10.15,1,18.23,2房2廳2衛,6,7,True,['6'],[],25,False,False,https://sinyi.in/o/JS99830HB/0/3,0,2,,1,False,False,540,,,2房2廳2衛,False,False,南投縣,Nantou-county,12,https://www.sinyi.com.tw/buy/list/Nantou-county/default-desc/12
,JS99938HB,85度C旁商業區59坪角建地,23.7577,120.687041,['https://img.hbhousing.com.tw/pictures/C290/C290JS99938a.jpg'],https://img.hbhousing.com.tw/pictures/C290/C290JS99938a.jpg,,,,,0.0,南投縣竹山鎮中正段,--,['I'],['I'],0,1150,0.0,59.9,0,-1.0,,1,0,False,,[],3,False,False,https://sinyi.in/o/JS99938HB/0/3,0,2,,3,False,False,557,,,,False,False,南投縣,Nantou-county,12,https://www.sinyi.com.tw/buy/list/Nantou-county/default-desc/12
,MS153061HB,埔里平坦農地1,23.939480867365,120.99085286935,['https://img.hbhousing.com.tw/pictures/C038/C038MS153061a.jpg'],https://img.hbhousing.com.tw/pictures/C038/C038MS153061a.jpg,,,,,0.0,南投縣埔里鎮東潤路,--,['I'],['I'],0,1075,0.0,860.69,0,-1.0,,0,0,False,,[],2,False,False,https://sinyi.in/o/MS153061HB/0/3,0,2,,3,False,False,545,,,,False,False,南投縣,Nantou-county,12,https://www.sinyi.com.tw/buy/list/Nantou-county/default-desc/12
,RS75129HB,中興精美電梯別墅,23.9306927606,120.701947881,['https://img.hbhousing.com.tw/pictures/C303/C303RS75129a.jpg'],https://img.hbhousing.com.tw/pictures/C303/C303RS75129a.jpg,,,,,0.0,南投縣南投市力行三街,13.4年,['D'],['D'],0,2788,103.97,78.53,1,103.97,6房3廳6衛,1-4,4,True,['6'],[],24,False,False,https://sinyi.in/o/RS75129HB/0/3,0,2,,1,False,False,540,,,6房3廳6衛,False,False,南投縣,Nantou-county,12,https://www.sinyi.com.tw/buy/list/Nantou-county/default-desc/12
,RS81156HB,包尾山農地,23.914345,120.699482,['https://img.hbhousing.com.tw/pictures/C105/C105RS81156a.jpg'],https://img.hbhousing.com.tw/pictures/C105/C105RS81156a.jpg,,,,,0.0,南投縣南投市順溪北路,--,['I'],['I'],0,1188,0.0,3707.09,0,-1.0,,0,0,False,,[],3,False,False,https://sinyi.in/o/RS81156HB/0/3,0,2,,3,False,False,540,,,,False,False,南投縣,Nantou-county,12,https://www.sinyi.com.tw/buy/list/Nantou-county/default-desc/12
,RS87222HB,南投名間大地坪景觀農地,23.87753,120.6837,['https://img.hbhousing.com.tw/pictures/C203/C203RS87222a.jpg'],https://img.hbhousing.com.tw/pictures/C203/C203RS87222a.jpg,,,,,0.0,南投縣名間鄉新北段,--,['I'],['I'],0,3380,0.0,4860.36,0,-1.0,,0,0,False,,[],1,False,False,https://sinyi.in/o/RS87222HB/0/3,0,2,,3,False,False,551,,,,False,False,南投縣,Nantou-county,12,https://www.sinyi.com.tw/buy/list/Nantou-county/default-desc/12
,RS88206HB,專簽~南投鹿谷臨路農牧用地,23.7459,120.752958,['https://img.hbhousing.com.tw/pictures/C075/C075RS88206a.jpg'],https://img.hbhousing.com.tw/pictures/C075/C075RS88206a.jpg,,,,,0.0,南投縣鹿谷鄉內樹皮段,--,['I'],['I'],0,2280,0.0,1268.69,0,-1.0,,0,0,False,,[],2,False,False,https://sinyi.in/o/RS88206HB/0/3,0,2,,3,False,False,558,,,,False,False,南投縣,Nantou-county,12,https://www.sinyi.com.tw/buy/list/Nantou-county/default-desc/12
,RS92337HB,埔里近中台禪寺臨雙線道農地,24.02128,120.95201,['https://img.hbhousing.com.tw/pictures/C222/C222RS92337a.jpg'],https://img.hbhousing.com.tw/pictures/C222/C222RS92337a.jpg,,,,,0.0,南投縣埔里鎮三條崙段,--,['I'],['I'],0,772,0.0,515.91,0,-1.0,,0,0,False,,[],3,False,False,https://sinyi.in/o/RS92337HB/0/3,0,2,,3,False,False,545,,,,False,False,南投縣,Nantou-county,12,https://www.sinyi.com.tw/buy/list/Nantou-county/default-desc/12
