objectId,houseNo,name,latitude,longitude,image,largeImage,managerId,imageTag,commId,commName,discount,address,age,houselandtype,houselandtypeShow,priceFirst,totalPrice,areaBuilding,areaLand,isHasBalcony,pingUsed,layout,floor,totalfloor,isParking,parking,tags,threeMonthsClicks,isOff,isSimilar,shareURL,status,kind,uniPrice,objectType,3DVR,Is3Dvr,zipCode,groupCompany,addLayout,totalLayout,isHasVideo,isHasView,city_name,city_code,page,source_url
,2505WJ,️羅運瑪丁尼茲豪邸,24.683744,121.757845,['https://res.sinyi.com.tw/buy/2505WJ/smallimg/A.JPG'],https://res.sinyi.com.tw/buy/2505WJ/bigimg/A.JPG,,,,,0.0,宜蘭縣羅東鎮四維路,10.7年,['M'],['M'],3650,3650,115.68,36.26,1,73.99,4房2廳5衛,1,4,True,"['2', '2']","['7', '6', '3', '4', '5', '2', '12', '11', '100', '102', '111']",180,False,False,https://sinyi.in/o/2505WJ/0/3,2,1,,1,True,True,265,1.0,,4房2廳5衛,False,False,宜蘭縣,Yilan-county,1,https://www.sinyi.com.tw/buy/list/Yilan-county/default-desc/1
,2936QD,羅運瑪丁尼茲雙車位,24.683724,121.757904,['https://res.sinyi.com.tw/buy/2936QD/smallimg/A.JPG'],https://res.sinyi.com.tw/buy/2936QD/bigimg/A.JPG,,,,,0.0,宜蘭縣羅東鎮四維路,10.7年,['M'],['M'],2980,2980,82.29,25.87,1,51.02,3房2廳3衛,1,4,True,"['2', '2']","['7', '6', '3', '4', '5', '2', '12', '11', '100', '102', '111']",241,False,False,https://sinyi.in/o/2936QD/0/3,2,1,,1,True,True,265,1.0,,3房2廳3衛,False,False,宜蘭縣,Yilan-county,1,https://www.sinyi.com.tw/buy/list/Yilan-county/default-desc/1
,4374FJ,礁溪電梯溫泉旅店,24.82729,121.765092,['https://res.sinyi.com.tw/buy/4374FJ/smallimg/A.JPG'],https://res.sinyi.com.tw/buy/4374FJ/bigimg/A.JPG,,,,,-25.0,宜蘭縣礁溪鄉德陽路,43.6年,"['D', 'K']","['N', 'K']",12000,9000,121.37,61.98,0,112.51,15房1廳13衛1室,1-3,3,False,,"['7', '6', '4', '5', '2', '18', '21', '100', '102', '107']",146,False,False,https://sinyi.in/o/4374FJ/0/3,2,1,,1,False,False,262,1.0,18房14衛1室,33房1廳27衛2室,False,False,宜蘭縣,Yilan-county,1,https://www.sinyi.com.tw/buy/list/Yilan-county/default-desc/1
,6769RJ,羅東火車站商圈三角窗店面,24.676849,121.771587,['https://res.sinyi.com.tw/buy/6769RJ/smallimg/A.JPG'],https://res.sinyi.com.tw/buy/6769RJ/bigimg/A.JPG,,[2],,,0.0,宜蘭縣羅東鎮中正路,18.7年,"['E', 'D']","['E', 'N']",13800,13800,186.21,61.11,1,165.82,3廳3衛,1-4,4,False,,"['22', '7', '4', '5', '2', '15', '16', '18', '19', '14', '100', '102', '107']",75,False,False,https://sinyi.in/o/6769RJ/0/3,2,1,,1,True,True,265,1.0,,3廳3衛,False,False,宜蘭縣,Yilan-county,1,https://www.sinyi.com.tw/buy/list/Yilan-county/default-desc/1
,0235RS,嵐峰路靜巷典雅舒適透天,24.743302,121.755447,['https://res.sinyi.com.tw/buy/0235RS/smallimg/A.JPG'],https://res.sinyi.com.tw/buy/0235RS/bigimg/A.JPG,,,,,-3.98,宜蘭縣宜蘭市嵐峰路一段,38.0年,['D'],['N'],1758,1688,44.44,37.58,0,40.03,3房2廳1衛,1-2,2,False,,"['7', '3', '4', '5', '2', '11', '18', '19', '20', '100', '107']",726,False,False,https://sinyi.in/o/0235RS/0/3,2,1,,1,True,True,260,1.0,2房1衛1室,5房2廳2衛1室,False,False,宜蘭縣,Yilan-county,1,https://www.sinyi.com.tw/buy/list/Yilan-county/default-desc/1
,8194PW,宜蘭松柏居馥,24.6751,121.714386,['https://res.sinyi.com.tw/buy/8194PW/smallimg/A.JPG'],https://res.sinyi.com.tw/buy/8194PW/bigimg/A.JPG,,,,,-22.22,宜蘭縣三星鄉農義路二段,21.0年,['K'],['K'],3600,2800,75.09,430.16,1,75.09,6房3廳5衛,1-3,3,False,,"['7', '6', '3', '4', '5', '2', '100']",141,False,False,https://sinyi.in/o/8194PW/0/3,2,1,,1,False,False,266,1.0,,6房3廳5衛,False,False,宜蘭縣,Yilan-county,1,https://www.sinyi.com.tw/buy/list/Yilan-county/default-desc/1
,9699VK,⭐羅運瑪丁尼茲豪宅別墅,24.683959,121.758005,['https://res.sinyi.com.tw/buy/9699VK/smallimg/A.JPG'],https://res.sinyi.com.tw/buy/9699VK/bigimg/A.JPG,,,,,0.0,宜蘭縣羅東鎮四維路,10.7年,['D'],['N'],4350,4350,142.52,42.26,1,75.96,4房2廳5衛1室,B1-4,4,True,"['6', '6']","['7', '6', '3', '4', '5', '2', '12', '10', '11', '100', '102', '111']",151,False,False,https://sinyi.in/o/9699VK/0/3,2,1,,1,True,True,265,1.0,1房,5房2廳5衛1室,False,False,宜蘭縣,Yilan-county,1,https://www.sinyi.com.tw/buy/list/Yilan-county/default-desc/1
,18781B,宜蘭五結‧精緻透天別墅,24.699645,121.802059,['https://res.sinyi.com.tw/buy/18781B/smallimg/A.JPG'],https://res.sinyi.com.tw/buy/18781B/bigimg/A.JPG,,,,,0.0,宜蘭縣五結鄉大吉二路,4.5年,['D'],['D'],1498,1498,42.87,39.9,1,42.87,3房3廳3衛,1-3,3,False,,"['7', '4', '5', '2', '19', '20', '21', '100']",642,False,False,https://sinyi.in/o/18781B/0/3,2,1,,1,True,True,268,1.0,,3房3廳3衛,False,False,宜蘭縣,Yilan-county,1,https://www.sinyi.com.tw/buy/list/Yilan-county/default-desc/1
,6037XG,誠售！湯院子裝潢美屋,24.8624561,121.818897,['https://res.sinyi.com.tw/buy/6037XG/smallimg/A.JPG'],https://res.sinyi.com.tw/buy/6037XG/bigimg/A.JPG,,,,,0.0,宜蘭縣頭城鎮文雅路,8.8年,['L'],['L'],588,588,23.78,6.86,1,12.93,1房1廳1衛,7,15,False,,"['7', '6', '4', '5', '12', '11', '16', '19', '20', '13', '102']",38,False,False,https://sinyi.in/o/6037XG/0/3,2,1,,1,False,False,261,1.0,,1房1廳1衛,False,False,宜蘭縣,Yilan-county,1,https://www.sinyi.com.tw/buy/list/Yilan-county/default-desc/1
,1381JH,礁溪機能便利溫泉宅,24.823264,121.769206,['https://res.sinyi.com.tw/buy/1381JH/smallimg/A.JPG'],https://res.sinyi.com.tw/buy/1381JH/bigimg/A.JPG,,,,,-13.78,宜蘭縣礁溪鄉和平路,29.1年,['M'],['M'],798,688,27.35,5.96,1,19.9,2房2廳2衛,4,6,False,,"['7', '4', '5', '2', '18', '19', '20', '102', '107']",458,False,False,https://sinyi.in/o/1381JH/0/3,2,1,,1,False,False,262,1.0,,2房2廳2衛,False,False,宜蘭縣,Yilan-county,1,https://www.sinyi.com.tw/buy/list/Yilan-county/default-desc/1
,15739D,宜蘭五結‧英式精品別墅,24.699535,121.802045,['https://res.sinyi.com.tw/buy/15739D/smallimg/A.JPG'],https://res.sinyi.com.tw/buy/15739D/bigimg/A.JPG,,,,,0.0,宜蘭縣五結鄉大吉二路,4.5年,['D'],['D'],1498,1498,45.17,41.74,1,45.16,3房3廳3衛,1-3,3,False,,"['7', '4', '5', '2', '19', '20', '100']",371,False,False,https://sinyi.in/o/15739D/0/3,2,1,,1,True,True,268,1.0,,3房3廳3衛,False,False,宜蘭縣,Yilan-county,1,https://www.sinyi.com.tw/buy/list/Yilan-county/default-desc/1
,6754XY,把西班牙高端慢活帶回冬山,24.68383,121.730341,['https://res.sinyi.com.tw/buy/6754XY/smallimg/A.JPG'],https://res.sinyi.com.tw/buy/6754XY/bigimg/A.JPG,,,,,-11.36,宜蘭縣冬山鄉光華二路,18.3年,"['D', 'K']","['D', 'K']",8800,7800,90.54,669.06,1,90.54,5房2廳6衛,1-2,2,False,,"['7', '3', '4', '5', '100']",401,False,False,https://sinyi.in/o/6754XY/0/3,2,1,,1,False,False,269,1.0,2房5衛,7房2廳11衛,False,False,宜蘭縣,Yilan-county,1,https://www.sinyi.com.tw/buy/list/Yilan-county/default-desc/1
,2904QU,宜蘭羅東復興路農地,24.69042,121.75839,['https://res.sinyi.com.tw/buy/2904QU/smallimg/A.JPG'],https://res.sinyi.com.tw/buy/2904QU/bigimg/A.JPG,,,,,-19.07,宜蘭縣羅東鎮復興路三段,--,['I'],['I'],3188,2580,0.0,1083.74,0,-1.0,,,,False,,['100'],43,False,False,https://sinyi.in/o/2904QU/0/3,2,1,,3,False,False,265,1.0,,,False,False,宜蘭縣,Yilan-county,1,https://www.sinyi.com.tw/buy/list/Yilan-county/default-desc/1
,56415D,壯圍鄉千坪土地,24.776407977163,121.78101895632,['https://res.sinyi.com.tw/buy/56415D/smallimg/A.JPG'],https://res.sinyi.com.tw/buy/56415D/bigimg/A.JPG,,,,,-25.0,宜蘭縣壯圍鄉大福路三段,--,['I'],['I'],4000,3000,0.0,1563.62,0,-1.0,,,,False,,['100'],19,False,False,https://sinyi.in/o/56415D/0/3,2,1,,3,False,False,263,1.0,,,False,False,宜蘭縣,Yilan-county,1,https://www.sinyi.com.tw/buy/list/Yilan-county/default-desc/1
,9735BV,礁溪市區便宜優質溫泉別墅,24.825779,121.76485,['https://res.sinyi.com.tw/buy/9735BV/smallimg/A.JPG'],https://res.sinyi.com.tw/buy/9735BV/bigimg/A.JPG,,,,,0.0,宜蘭縣礁溪鄉德陽路,46.5年,['D'],['D'],1580,1580,38.0,34.04,0,38.0,3房2廳2衛,1-2,2,False,,"['7', '3', '4', '5', '2', '18', '20', '107']",58,False,False,https://sinyi.in/o/9735BV/0/3,2,1,,1,False,False,262,1.0,2廳1室,3房4廳2衛1室,False,False,宜蘭縣,Yilan-county,1,https://www.sinyi.com.tw/buy/list/Yilan-county/default-desc/1
,32134U,烏石港段超方正美地,24.865010847582,121.8290961954,['https://res.sinyi.com.tw/buy/32134U/smallimg/A.JPG'],https://res.sinyi.com.tw/buy/32134U/bigimg/A.JPG,,,,,-14.04,宜蘭縣頭城鎮烏石港段,--,['I'],['I'],5700,4900,0.0,243.88,0,-1.0,,,,False,,"['18', '19', '100', '107']",75,False,False,https://sinyi.in/o/32134U/0/3,2,1,,3,False,False,261,1.0,,,False,False,宜蘭縣,Yilan-county,1,https://www.sinyi.com.tw/buy/list/Yilan-county/default-desc/1
,99610C,近榮總員山分院土地,24.72347,121.68566,['https://res.sinyi.com.tw/buy/99610C/smallimg/A.JPG'],https://res.sinyi.com.tw/buy/99610C/bigimg/A.JPG,,,,,-38.29,宜蘭縣員山鄉榮光路,--,['I'],['I'],1050,648,0.0,81.11,0,-1.0,,,,False,,"['100', '111']",59,False,False,https://sinyi.in/o/99610C/0/3,2,1,,3,False,False,264,1.0,,,False,False,宜蘭縣,Yilan-county,1,https://www.sinyi.com.tw/buy/list/Yilan-county/default-desc/1
,10875Z,大降價！烏石港設計美透店,24.864771,121.83125,['https://res.sinyi.com.tw/buy/10875Z/smallimg/A.JPG'],https://res.sinyi.com.tw/buy/10875Z/bigimg/A.JPG,,,,,-23.31,宜蘭縣頭城鎮朝陽路,10.4年,['E'],['E'],5200,3988,118.62,54.68,1,112.16,3房3廳6衛,1-4,4,False,,"['7', '3', '4', '5', '2', '18', '19', '107']",93,False,False,https://sinyi.in/o/10875Z/0/3,2,1,,1,False,False,261,1.0,4房1廳1衛,7房4廳7衛,False,False,宜蘭縣,Yilan-county,1,https://www.sinyi.com.tw/buy/list/Yilan-county/default-desc/1
,5472JR,礁溪庭園透天,24.784309,121.696499,['https://res.sinyi.com.tw/buy/5472JR/smallimg/A.JPG'],https://res.sinyi.com.tw/buy/5472JR/bigimg/A.JPG,,,,,-7.54,宜蘭縣礁溪鄉二結路,21.4年,"['D', 'K']","['N', 'K']",6900,6380,161.03,1485.26,1,161.02,14房1廳14衛,1-2,2,False,,"['7', '6', '3', '4', '5', '2', '100']",311,False,False,https://sinyi.in/o/5472JR/0/3,2,1,,1,False,False,262,1.0,12房3廳10衛1室,26房4廳24衛1室,False,False,宜蘭縣,Yilan-county,1,https://www.sinyi.com.tw/buy/list/Yilan-county/default-desc/1
,7561YY,三星安農北路稀有農舍,24.685811,121.723194,['https://res.sinyi.com.tw/buy/7561YY/smallimg/A.JPG'],https://res.sinyi.com.tw/buy/7561YY/bigimg/A.JPG,,,,,0.0,宜蘭縣三星鄉安農北路二段,14.3年,['K'],['K'],6188,6188,138.61,425.69,1,138.61,7房5廳4衛3室,1-3,3,False,,"['7', '6', '3', '4', '5', '2', '15', '100']",25,False,False,https://sinyi.in/o/7561YY/0/3,2,1,,1,False,False,266,1.0,1衛,7房5廳5衛3室,False,False,宜蘭縣,Yilan-county,1,https://www.sinyi.com.tw/buy/list/Yilan-county/default-desc/1
,2779BP,宜蘭利澤工業區廠房,24.647646,121.838731,['https://res.sinyi.com.tw/buy/2779BP/smallimg/A.JPG'],https://res.sinyi.com.tw/buy/2779BP/bigimg/A.JPG,,,,,0.0,宜蘭縣五結鄉利工二路,16.5年,['G'],['G'],88000,88000,2955.44,5000.03,1,2931.06,1廳4衛6室,1-2,2,False,,"['6', '4', '5', '16', '100', '102']",49,False,False,https://sinyi.in/o/2779BP/0/3,2,1,,1,False,False,268,1.0,,1廳4衛6室,False,False,宜蘭縣,Yilan-county,2,https://www.sinyi.com.tw/buy/list/Yilan-county/default-desc/2
,6311UG,龜山朝日★海景精品套房,24.857727,121.83214,['https://res.sinyi.com.tw/buy/6311UG/smallimg/A.JPG'],https://res.sinyi.com.tw/buy/6311UG/bigimg/A.JPG,,,,,0.0,宜蘭縣頭城鎮協天路,18.4年,['M'],['M'],536,536,18.64,3.82,1,13.01,1房1廳1衛,3,9,False,,"['7', '6', '4', '5', '2', '12', '10', '15', '8', '9', '20', '102']",74,False,False,https://sinyi.in/o/6311UG/0/3,2,1,,1,False,False,261,1.0,,1房1廳1衛,False,False,宜蘭縣,Yilan-county,2,https://www.sinyi.com.tw/buy/list/Yilan-county/default-desc/2
,6976BM,五結景觀亮麗透天,24.671009,121.802947,['https://res.sinyi.com.tw/buy/6976BM/smallimg/A.JPG'],https://res.sinyi.com.tw/buy/6976BM/bigimg/A.JPG,,,,,-19.46,宜蘭縣五結鄉親河路二段,20.3年,['D'],['D'],2980,2400,82.43,223.64,1,78.27,4房2廳5衛,1-3,3,False,,"['7', '4', '5', '18', '19']",309,False,False,https://sinyi.in/o/6976BM/0/3,2,1,,1,False,False,268,1.0,2房2衛2室,6房2廳7衛2室,False,False,宜蘭縣,Yilan-county,2,https://www.sinyi.com.tw/buy/list/Yilan-county/default-desc/2
,8989AX,礁溪景觀上善如水美居,24.831897,121.774959,['https://res.sinyi.com.tw/buy/8989AX/smallimg/A.JPG'],https://res.sinyi.com.tw/buy/8989AX/bigimg/A.JPG,,,,,-13.51,宜蘭縣礁溪鄉公園路,11.4年,['L'],['L'],1258,1088,25.87,4.73,1,13.51,1房1廳1衛,13,15,False,,"['7', '4', '5', '2', '12', '15', '8', '9', '16', '18', '20', '102', '107']",335,False,False,https://sinyi.in/o/8989AX/0/3,2,1,,1,False,False,262,1.0,,1房1廳1衛,False,False,宜蘭縣,Yilan-county,2,https://www.sinyi.com.tw/buy/list/Yilan-county/default-desc/2
,0118VR,近羅東夜市獨棟透天,24.674495,121.770163,['https://res.sinyi.com.tw/buy/0118VR/smallimg/A.JPG'],https://res.sinyi.com.tw/buy/0118VR/bigimg/A.JPG,,,,,0.0,宜蘭縣羅東鎮中山西街,35.2年,"['D', 'E']","['N', 'E']",7688,7688,322.56,78.05,0,297.38,20房15廳12衛4室,B1-5,5,False,,"['7', '3', '4', '5', '16', '18', '19', '100', '107']",47,False,False,https://sinyi.in/o/0118VR/0/3,2,1,,1,False,False,265,1.0,1廳1衛1室,20房16廳13衛5室,False,False,宜蘭縣,Yilan-county,2,https://www.sinyi.com.tw/buy/list/Yilan-county/default-desc/2
,1937AH,宜大美宿採光好屋,24.74654,121.7512,['https://res.sinyi.com.tw/buy/1937AH/smallimg/A.JPG'],https://res.sinyi.com.tw/buy/1937AH/bigimg/A.JPG,,,,,0.0,宜蘭縣宜蘭市農權路,14.5年,"['M', 'C']","['M', 'C']",668,668,22.68,4.35,1,11.88,2房2衛,10,10,False,,"['7', '4', '5', '12', '10', '18', '19', '102', '107']",56,False,False,https://sinyi.in/o/1937AH/0/3,2,1,,1,False,False,260,1.0,,2房2衛,False,False,宜蘭縣,Yilan-county,2,https://www.sinyi.com.tw/buy/list/Yilan-county/default-desc/2
,2871AB,頭城高樓層景觀溫泉兩房,24.863042,121.82273,['https://res.sinyi.com.tw/buy/2871AB/smallimg/A.JPG'],https://res.sinyi.com.tw/buy/2871AB/bigimg/A.JPG,,,,,0.0,宜蘭縣頭城鎮復興路,8.1年,['L'],['L'],1580,1580,39.98,7.49,1,21.64,2房2廳1衛,17,23,False,,"['7', '6', '4', '5', '2', '12', '10', '15', '8', '9', '16', '18', '19', '102', '107']",253,False,False,https://sinyi.in/o/2871AB/0/3,2,1,,1,False,False,261,1.0,,2房2廳1衛,False,False,宜蘭縣,Yilan-county,2,https://www.sinyi.com.tw/buy/list/Yilan-county/default-desc/2
,9784QH,礁溪知名農場出售,24.812142,121.800137,['https://res.sinyi.com.tw/buy/9784QH/smallimg/A.JPG'],https://res.sinyi.com.tw/buy/9784QH/bigimg/A.JPG,,,,,0.0,宜蘭縣礁溪鄉塭底路,10.9年,"['K', 'D']","['K', 'N']",5680,5680,119.69,475.53,1,113.44,3房4廳3衛,1-3,3,False,,"['7', '6', '3', '4', '5', '2', '100']",75,False,False,https://sinyi.in/o/9784QH/0/3,2,1,,1,False,False,262,1.0,,3房4廳3衛,False,False,宜蘭縣,Yilan-county,2,https://www.sinyi.com.tw/buy/list/Yilan-county/default-desc/2
,04604X,廉售宜蘭小礁溪雙溪園寶地,24.808953,121.698588,['https://res.sinyi.com.tw/buy/04604X/smallimg/A.JPG'],https://res.sinyi.com.tw/buy/04604X/bigimg/A.JPG,,,,,0.0,宜蘭縣礁溪鄉大坡路二段,--,['I'],['I'],3958,3958,0.0,7917.19,0,-1.0,,,,False,,['100'],51,False,False,https://sinyi.in/o/04604X/0/3,2,1,,3,False,False,262,1.0,,,False,False,宜蘭縣,Yilan-county,2,https://www.sinyi.com.tw/buy/list/Yilan-county/default-desc/2
,1433TK,安農溪旁超過７００坪土地,24.690089,121.738653,['https://res.sinyi.com.tw/buy/1433TK/smallimg/A.JPG'],https://res.sinyi.com.tw/buy/1433TK/bigimg/A.JPG,,,,,0.0,宜蘭縣冬山鄉安農六路,--,['I'],['I'],2203,2203,0.0,786.53,0,-1.0,,,,False,,['100'],31,False,False,https://sinyi.in/o/1433TK/0/3,2,1,,3,False,False,269,1.0,,,False,False,宜蘭縣,Yilan-county,2,https://www.sinyi.com.tw/buy/list/Yilan-county/default-desc/2
,2880GQ,宜蘭五結★千坪工業用地,24.68132,121.78215,['https://res.sinyi.com.tw/buy/2880GQ/smallimg/A.JPG'],https://res.sinyi.com.tw/buy/2880GQ/bigimg/A.JPG,,,,,0.0,宜蘭縣五結鄉五結路三段,--,['I'],['I'],43550,43550,0.0,1997.71,0,-1.0,,,,False,,['100'],17,False,False,https://sinyi.in/o/2880GQ/0/3,2,1,,3,False,False,268,1.0,,,False,False,宜蘭縣,Yilan-county,2,https://www.sinyi.com.tw/buy/list/Yilan-county/default-desc/2
,3100YH,正尚德路．方正角地,24.737682275518,121.71169224363,['https://res.sinyi.com.tw/buy/3100YH/smallimg/A.JPG'],https://res.sinyi.com.tw/buy/3100YH/bigimg/A.JPG,,,,,0.0,宜蘭縣員山鄉尚德路,--,['I'],['I'],2656,2656,0.0,758.67,0,-1.0,,,,False,,['100'],74,False,False,https://sinyi.in/o/3100YH/0/3,2,1,,3,False,False,264,1.0,,,False,False,宜蘭縣,Yilan-county,2,https://www.sinyi.com.tw/buy/list/Yilan-county/default-desc/2
,45427T,宜蘭三星萬坪丁種建築用地,24.698476,121.702905,['https://res.sinyi.com.tw/buy/45427T/smallimg/A.JPG'],https://res.sinyi.com.tw/buy/45427T/bigimg/A.JPG,,,,,0.0,宜蘭縣三星鄉中興路,17.5年,['I'],['I'],114100,114100,242.38,16306.73,0,-1.0,,1-4,4,False,,['100'],63,False,False,https://sinyi.in/o/45427T/0/3,2,1,,3,False,False,266,1.0,3廳1衛2室,3廳1衛2室,False,False,宜蘭縣,Yilan-county,2,https://www.sinyi.com.tw/buy/list/Yilan-county/default-desc/2
,4605YV,宜蘭礁溪國五９８８坪農地,24.814505,121.776976,['https://res.sinyi.com.tw/buy/4605YV/smallimg/A.JPG'],https://res.sinyi.com.tw/buy/4605YV/bigimg/A.JPG,,,,,-3.0,宜蘭縣礁溪鄉淇武蘭北路,--,['I'],['I'],2668,2588,0.0,988.14,0,-1.0,,,,False,,['100'],21,False,False,https://sinyi.in/o/4605YV/0/3,2,1,,3,False,False,262,1.0,,,False,False,宜蘭縣,Yilan-county,2,https://www.sinyi.com.tw/buy/list/Yilan-county/default-desc/2
,6817YH,宜蘭土地約４００坪,24.628581,121.846699,['https://res.sinyi.com.tw/buy/6817YH/smallimg/A.JPG'],https://res.sinyi.com.tw/buy/6817YH/bigimg/A.JPG,,,,,0.0,宜蘭縣蘇澳鎮存仁路,--,['I'],['I'],328,328,0.0,403.6,0,-1.0,,,,False,,['100'],51,False,False,https://sinyi.in/o/6817YH/0/3,2,1,,3,False,False,270,1.0,,,False,False,宜蘭縣,Yilan-county,2,https://www.sinyi.com.tw/buy/list/Yilan-county/default-desc/2
,9599LT,極致享受山嶼海,24.856483,121.828766,['https://res.sinyi.com.tw/buy/9599LT/smallimg/A.JPG'],https://res.sinyi.com.tw/buy/9599LT/bigimg/A.JPG,,,,,-10.91,宜蘭縣頭城鎮河堤路,7.4年,['L'],['L'],898,800,26.61,5.06,1,14.68,1房1廳1衛,4,15,False,,"['7', '6', '4', '2', '12', '10', '8', '9', '11', '18', '20', '102', '107', '111']",294,False,False,https://sinyi.in/o/9599LT/0/3,2,1,,1,False,False,261,1.0,,1房1廳1衛,False,False,宜蘭縣,Yilan-county,2,https://www.sinyi.com.tw/buy/list/Yilan-county/default-desc/2
,05237T,宜蘭礁溪近火車站土地,24.79184,121.76571,['https://res.sinyi.com.tw/buy/05237T/smallimg/A.JPG'],https://res.sinyi.com.tw/buy/05237T/bigimg/A.JPG,,,,,0.0,宜蘭縣礁溪鄉瑪僯路,--,['I'],['I'],2688,2688,0.0,945.54,0,-1.0,,0,0,False,,['100'],20,False,False,https://sinyi.in/o/05237T/0/3,2,1,,3,False,False,262,1.0,,,False,False,宜蘭縣,Yilan-county,2,https://www.sinyi.com.tw/buy/list/Yilan-county/default-desc/2
,2487RH,山青水秀．農地透天,24.649469,121.750063,['https://res.sinyi.com.tw/buy/2487RH/smallimg/A.JPG'],https://res.sinyi.com.tw/buy/2487RH/bigimg/A.JPG,,,,,0.0,宜蘭縣冬山鄉鹿埔路,24.7年,['K'],['K'],2380,2380,90.65,531.04,1,90.66,4房4廳2衛,1-2,2,False,,"['7', '6', '3', '4', '5', '2', '100']",197,False,False,https://sinyi.in/o/2487RH/0/3,2,1,,1,False,False,269,1.0,,4房4廳2衛,False,False,宜蘭縣,Yilan-county,2,https://www.sinyi.com.tw/buy/list/Yilan-county/default-desc/2
,6548WC,宜蘭高鐵近享藍天禾居,24.702991,121.769997,['https://res.sinyi.com.tw/buy/6548WC/smallimg/A.JPG'],https://res.sinyi.com.tw/buy/6548WC/bigimg/A.JPG,,,,,0.0,宜蘭縣五結鄉中正路三段,35.0年,['D'],['N'],5168,5168,170.12,52.05,0,159.65,4房1廳4衛2室,1-5,5,False,,"['7', '6', '4', '5', '2', '16', '18', '19', '107']",27,False,False,https://sinyi.in/o/6548WC/0/3,2,1,,1,False,False,268,1.0,4房2廳1衛,8房3廳5衛2室,False,False,宜蘭縣,Yilan-county,2,https://www.sinyi.com.tw/buy/list/Yilan-county/default-desc/2
,1329GV,國道旁田園美景透天,24.748016,121.786081,['https://res.sinyi.com.tw/buy/1329GV/smallimg/A.JPG'],https://res.sinyi.com.tw/buy/1329GV/bigimg/A.JPG,,,,,0.0,宜蘭縣壯圍鄉莊敬路,7.6年,['D'],['N'],1288,1288,46.13,22.46,1,38.35,4房3廳3衛,1-3,3,False,,"['7', '4', '5', '16', '18', '19', '20', '107']",116,False,False,https://sinyi.in/o/1329GV/0/3,2,1,,1,False,False,263,1.0,,4房3廳3衛,False,False,宜蘭縣,Yilan-county,2,https://www.sinyi.com.tw/buy/list/Yilan-county/default-desc/2
,4454NB,頭城海邊住宅土地,24.92103,121.8833,['https://res.sinyi.com.tw/buy/4454NB/smallimg/A.JPG'],https://res.sinyi.com.tw/buy/4454NB/bigimg/A.JPG,,,,,0.0,宜蘭縣頭城鎮濱海路四段,--,['I'],['I'],26927,26927,0.0,2154.3,0,-1.0,,,,False,,"['16', '100']",23,False,False,https://sinyi.in/o/4454NB/0/3,2,1,,3,False,False,261,3.0,,,False,False,宜蘭縣,Yilan-county,3,https://www.sinyi.com.tw/buy/list/Yilan-county/default-desc/3
,17993M,宜蘭農地,24.70257,121.80847,['https://res.sinyi.com.tw/buy/17993M/smallimg/A.JPG'],https://res.sinyi.com.tw/buy/17993M/bigimg/A.JPG,,,,,-7.69,宜蘭縣五結鄉錦草中路,--,['I'],['I'],1300,1200,0.0,895.4,0,-1.0,,,,False,,['100'],22,False,False,https://sinyi.in/o/17993M/0/3,2,1,,3,False,False,268,1.0,,,False,False,宜蘭縣,Yilan-county,3,https://www.sinyi.com.tw/buy/list/Yilan-county/default-desc/3
,3997WB,陳定南紀念園區旁農地,24.689066040718,121.71522225812,['https://res.sinyi.com.tw/buy/3997WB/smallimg/A.JPG'],https://res.sinyi.com.tw/buy/3997WB/bigimg/A.JPG,,,,,0.0,宜蘭縣三星鄉大義七路,--,['I'],['I'],790,790,0.0,470.54,0,-1.0,,,,False,,['100'],25,False,False,https://sinyi.in/o/3997WB/0/3,2,1,,3,False,False,266,1.0,,,False,False,宜蘭縣,Yilan-county,3,https://www.sinyi.com.tw/buy/list/Yilan-county/default-desc/3
,41366X,永樂國小旁近四千多坪寶地,24.57488277245,121.84472206941,['https://res.sinyi.com.tw/buy/41366X/smallimg/A.JPG'],https://res.sinyi.com.tw/buy/41366X/bigimg/A.JPG,,,,,-8.0,宜蘭縣蘇澳鎮永樂路,--,['I'],['I'],15000,13800,0.0,4444.1,0,-1.0,,,,False,,"['19', '100']",11,False,False,https://sinyi.in/o/41366X/0/3,2,1,,3,False,False,270,1.0,,,False,False,宜蘭縣,Yilan-county,3,https://www.sinyi.com.tw/buy/list/Yilan-county/default-desc/3
,5555FH,宜蘭三星地中海美學建築,24.684018,121.690764,['https://res.sinyi.com.tw/buy/5555FH/smallimg/A.JPG'],https://res.sinyi.com.tw/buy/5555FH/bigimg/A.JPG,,,,,-9.35,宜蘭縣三星鄉義富一路,0.6年,['K'],['K'],4280,3880,117.93,725.12,1,117.93,6房4廳7衛,1-2,2,False,,"['7', '6', '3', '4', '5', '2']",75,False,False,https://sinyi.in/o/5555FH/0/3,2,1,,1,False,False,266,1.0,,6房4廳7衛,False,False,宜蘭縣,Yilan-county,3,https://www.sinyi.com.tw/buy/list/Yilan-county/default-desc/3
,7698RC,宜蘭礁溪話水景觀湯屋賞,24.830667,121.775456,['https://res.sinyi.com.tw/buy/7698RC/smallimg/A.JPG'],https://res.sinyi.com.tw/buy/7698RC/bigimg/A.JPG,,,,,-5.21,宜蘭縣礁溪鄉健康路,10.7年,['L'],['L'],768,728,19.53,2.92,1,10.23,1房1廳1衛,4,14,False,,"['7', '6', '4', '5', '12', '8', '9', '16', '18', '102', '107']",439,False,False,https://sinyi.in/o/7698RC/0/3,2,1,,1,False,False,262,1.0,,1房1廳1衛,False,False,宜蘭縣,Yilan-county,3,https://www.sinyi.com.tw/buy/list/Yilan-county/default-desc/3
,0385SC,凱悅二期★渡假雲天,24.82485,121.763884,['https://res.sinyi.com.tw/buy/0385SC/smallimg/A.JPG'],https://res.sinyi.com.tw/buy/0385SC/bigimg/A.JPG,,,,,0.0,宜蘭縣礁溪鄉大忠路,19.7年,"['L', 'C']","['L', 'C']",618,618,20.05,3.14,1,12.83,1房1廳1衛,11,14,False,,"['7', '6', '4', '5', '2', '12', '10', '11', '18', '102', '107']",411,False,False,https://sinyi.in/o/0385SC/0/3,2,1,,1,False,False,262,1.0,,1房1廳1衛,False,False,宜蘭縣,Yilan-county,3,https://www.sinyi.com.tw/buy/list/Yilan-county/default-desc/3
,0752JY,清水模。白石隱輕奢兩房,24.837803,121.781654,['https://res.sinyi.com.tw/buy/0752JY/smallimg/A.JPG'],https://res.sinyi.com.tw/buy/0752JY/bigimg/A.JPG,,,,,0.0,宜蘭縣礁溪鄉白石腳路,6.2年,['M'],['M'],1300,1300,28.33,10.08,1,17.14,2房2廳1衛,4,4,False,,"['7', '6', '4', '5', '12', '10', '15', '8', '11', '102']",311,False,False,https://sinyi.in/o/0752JY/0/3,2,1,,1,False,False,262,1.0,,2房2廳1衛,False,False,宜蘭縣,Yilan-county,3,https://www.sinyi.com.tw/buy/list/Yilan-county/default-desc/3
,3588QX,礁溪巨星套房精選,24.827005425585,121.77496825765,['https://res.sinyi.com.tw/buy/3588QX/smallimg/A.JPG'],https://res.sinyi.com.tw/buy/3588QX/bigimg/A.JPG,,,,,-6.41,宜蘭縣礁溪鄉溫泉路,30.2年,['L'],['L'],468,438,16.59,1.54,0,12.86,1房1廳1衛,3,12,False,,"['7', '2', '12', '10', '16', '18', '20', '102', '107']",478,False,False,https://sinyi.in/o/3588QX/0/3,2,1,,1,False,False,262,1.0,,1房1廳1衛,False,False,宜蘭縣,Yilan-county,3,https://www.sinyi.com.tw/buy/list/Yilan-county/default-desc/3
,4280NC,稀珍！白石隱˙精緻質感戶,24.837803,121.781654,['https://res.sinyi.com.tw/buy/4280NC/smallimg/A.JPG'],https://res.sinyi.com.tw/buy/4280NC/bigimg/A.JPG,,,,,0.0,宜蘭縣礁溪鄉白石腳路,6.2年,['M'],['M'],1480,1480,35.57,9.81,1,16.68,2房2廳1衛,4,4,True,['2'],"['7', '6', '4', '5', '2', '12', '10', '15', '8', '11', '20', '102']",568,False,False,https://sinyi.in/o/4280NC/0/3,2,1,,1,False,False,262,1.0,,2房2廳1衛,False,False,宜蘭縣,Yilan-county,3,https://www.sinyi.com.tw/buy/list/Yilan-county/default-desc/3
,7052DR,★山海環抱稀有渡假宅,24.857572,121.830629,['https://res.sinyi.com.tw/buy/7052DR/smallimg/A.JPG'],https://res.sinyi.com.tw/buy/7052DR/bigimg/A.JPG,,,,,0.0,宜蘭縣頭城鎮過港路,7.3年,['L'],['L'],650,650,24.1,7.1,1,10.98,1房1廳1衛,3,10,False,,"['7', '4', '2', '12', '10', '8', '9', '11', '18', '102', '107']",368,False,False,https://sinyi.in/o/7052DR/0/3,2,1,,1,False,False,261,1.0,,1房1廳1衛,False,False,宜蘭縣,Yilan-county,3,https://www.sinyi.com.tw/buy/list/Yilan-county/default-desc/3
,01846Y,羅東市區工商綜合專用區Ａ,24.68093,121.77251,['https://res.sinyi.com.tw/buy/01846Y/smallimg/A.JPG'],https://res.sinyi.com.tw/buy/01846Y/bigimg/A.JPG,,,,,31.02,宜蘭縣羅東鎮信義路,--,['I'],['I'],12288,16100,0.0,272.69,0,-1.0,,,,False,,"['18', '100', '107', '111']",29,False,False,https://sinyi.in/o/01846Y/0/3,2,1,,3,False,False,265,1.0,,,False,False,宜蘭縣,Yilan-county,3,https://www.sinyi.com.tw/buy/list/Yilan-county/default-desc/3
,02948A,羅東市區工商綜合專用區Ｂ,24.68148,121.77249,['https://res.sinyi.com.tw/buy/02948A/smallimg/A.JPG'],https://res.sinyi.com.tw/buy/02948A/bigimg/A.JPG,,,,,0.0,宜蘭縣羅東鎮信義路,--,['I'],['I'],51000,51000,0.0,864.29,0,-1.0,,,,False,,"['18', '100', '107', '111']",24,False,False,https://sinyi.in/o/02948A/0/3,2,1,,3,False,False,265,1.0,,,False,False,宜蘭縣,Yilan-county,3,https://www.sinyi.com.tw/buy/list/Yilan-county/default-desc/3
,26383W,礁溪塭底臨路方正農地,24.804698,121.801041,['https://res.sinyi.com.tw/buy/26383W/smallimg/A.JPG'],https://res.sinyi.com.tw/buy/26383W/bigimg/A.JPG,,,,,0.0,宜蘭縣礁溪鄉塭底路,--,['I'],['I'],1100,1100,0.0,814.63,0,-1.0,,,,False,,['100'],86,False,False,https://sinyi.in/o/26383W/0/3,2,1,,3,False,False,262,1.0,,,False,False,宜蘭縣,Yilan-county,3,https://www.sinyi.com.tw/buy/list/Yilan-county/default-desc/3
,3539LD,泰悅溫泉電梯小宅,24.8286,121.779678,['https://res.sinyi.com.tw/buy/3539LD/smallimg/A.JPG'],https://res.sinyi.com.tw/buy/3539LD/bigimg/A.JPG,,,,,-7.79,宜蘭縣礁溪鄉奇立丹路,14.1年,['M'],['M'],488,450,17.21,6.75,1,13.37,1房1廳1衛1室,2,4,False,,"['7', '4', '12', '10', '16', '18', '20', '102', '107']",590,False,False,https://sinyi.in/o/3539LD/0/3,2,1,,1,False,False,262,1.0,,1房1廳1衛1室,False,False,宜蘭縣,Yilan-county,3,https://www.sinyi.com.tw/buy/list/Yilan-county/default-desc/3
,1187AQ,礁溪別府稀有釋出,24.825695,121.764923,['https://res.sinyi.com.tw/buy/1187AQ/smallimg/A.JPG'],https://res.sinyi.com.tw/buy/1187AQ/bigimg/A.JPG,,,,,0.0,宜蘭縣礁溪鄉德陽路,31.5年,['L'],['L'],548,548,17.74,3.17,1,11.65,1房1廳1衛,10,14,False,,"['7', '6', '4', '5', '10', '8', '9', '11', '18', '102', '107']",351,False,False,https://sinyi.in/o/1187AQ/0/3,2,1,,1,False,False,262,1.0,,1房1廳1衛,False,False,宜蘭縣,Yilan-county,3,https://www.sinyi.com.tw/buy/list/Yilan-county/default-desc/3
,2417LH,鳳凰君悅奢華溫泉度假套房,24.829675,121.773758,['https://res.sinyi.com.tw/buy/2417LH/smallimg/A.JPG'],https://res.sinyi.com.tw/buy/2417LH/bigimg/A.JPG,,,,,-2.67,宜蘭縣礁溪鄉健康一街,15.0年,['F'],['F'],1200,1168,23.45,4.37,1,12.85,1廳1衛,4,9,False,,"['7', '5', '12', '10', '8', '16', '18', '102']",150,False,False,https://sinyi.in/o/2417LH/0/3,2,1,,1,False,False,262,1.0,1房1衛1室,1房1廳2衛1室,False,False,宜蘭縣,Yilan-county,3,https://www.sinyi.com.tw/buy/list/Yilan-county/default-desc/3
,0529VM,礁溪高樓溫泉湯屋車位,24.829609475593,121.774252212,['https://res.sinyi.com.tw/buy/0529VM/smallimg/A.JPG'],https://res.sinyi.com.tw/buy/0529VM/bigimg/A.JPG,,,,,0.0,宜蘭縣礁溪鄉健康一街,10.5年,"['L', 'C']","['L', 'C']",1280,1280,41.02,6.68,1,18.93,1房1廳1衛,10,12,True,['2'],"['7', '6', '4', '5', '12', '10', '11', '16', '18', '20', '102', '107']",518,False,False,https://sinyi.in/o/0529VM/0/3,2,1,,1,False,False,262,1.0,,1房1廳1衛,False,False,宜蘭縣,Yilan-county,3,https://www.sinyi.com.tw/buy/list/Yilan-county/default-desc/3
,3912XQ,宜蘭礁溪近火車站土地,24.775736,121.755723,['https://res.sinyi.com.tw/buy/3912XQ/smallimg/A.JPG'],https://res.sinyi.com.tw/buy/3912XQ/bigimg/A.JPG,,,,,0.0,宜蘭縣宜蘭市中山路五段,--,['I'],['I'],3488,3488,0.0,756.28,0,-1.0,,,,False,,"['18', '107']",23,False,False,https://sinyi.in/o/3912XQ/0/3,2,1,,3,False,False,260,1.0,,,False,False,宜蘭縣,Yilan-county,3,https://www.sinyi.com.tw/buy/list/Yilan-county/default-desc/3
,5381NR,宜蘭縣政中心住六土地,24.727383499812,121.75709827623,['https://res.sinyi.com.tw/buy/5381NR/smallimg/A.JPG'],https://res.sinyi.com.tw/buy/5381NR/bigimg/A.JPG,,,,,0.0,宜蘭縣宜蘭市建業路,--,['I'],['I'],3250,3250,0.0,130.03,0,-1.0,,1-1,1,False,,"['19', '100']",47,False,False,https://sinyi.in/o/5381NR/0/3,2,1,,3,False,False,260,1.0,5房3廳2衛,5房3廳2衛,False,False,宜蘭縣,Yilan-county,3,https://www.sinyi.com.tw/buy/list/Yilan-county/default-desc/3
,6778VM,南法莊園藝術家設計別墅,24.725868,121.76631,['https://res.sinyi.com.tw/buy/6778VM/smallimg/A.JPG'],https://res.sinyi.com.tw/buy/6778VM/bigimg/A.JPG,,,,,0.3,宜蘭縣宜蘭市縣政一街,7.1年,['D'],['N'],2680,2688,72.57,26.24,1,42.95,4房1廳3衛2室,B1-4,4,True,['6'],"['7', '3', '4', '5', '2', '16', '19']",178,False,False,https://sinyi.in/o/6778VM/0/3,2,1,,1,False,False,260,1.0,,4房1廳3衛2室,False,False,宜蘭縣,Yilan-county,4,https://www.sinyi.com.tw/buy/list/Yilan-county/default-desc/4
,7805ZR,宜蘭＊翠影環繞＊美築,24.670809,121.807229,['https://res.sinyi.com.tw/buy/7805ZR/smallimg/A.JPG'],https://res.sinyi.com.tw/buy/7805ZR/bigimg/A.JPG,,,,,0.0,宜蘭縣冬山鄉東八路,1.8年,"['G', 'H']","['G', 'H']",1388,1388,23.54,369.6,0,23.54,1廳,1-1,1,False,,"['1', '100']",37,False,False,https://sinyi.in/o/7805ZR/0/3,2,1,,1,False,False,269,1.0,,1廳,False,False,宜蘭縣,Yilan-county,4,https://www.sinyi.com.tw/buy/list/Yilan-county/default-desc/4
,93975B,【推薦】大面寬綠意農地,24.69544,121.727,['https://res.sinyi.com.tw/buy/93975B/smallimg/A.JPG'],https://res.sinyi.com.tw/buy/93975B/bigimg/A.JPG,,,,,5.89,宜蘭縣三星鄉大洲路,--,['I'],['I'],2003,2121,0.0,1178.36,0,-1.0,,,,False,,"['19', '100']",53,False,False,https://sinyi.in/o/93975B/0/3,2,1,,3,False,False,266,1.0,,,False,False,宜蘭縣,Yilan-county,4,https://www.sinyi.com.tw/buy/list/Yilan-county/default-desc/4
,2889VK,宜蘭萬坪土地,24.775202,121.671499,['https://res.sinyi.com.tw/buy/2889VK/smallimg/A.JPG'],https://res.sinyi.com.tw/buy/2889VK/bigimg/A.JPG,,,,,0.0,宜蘭縣員山鄉隘界路,--,['I'],['I'],3980,3980,0.0,10265.03,0,-1.0,,,,False,,[],6,False,False,https://sinyi.in/o/2889VK/0/3,2,1,,3,False,False,264,1.0,,,False,False,宜蘭縣,Yilan-county,4,https://www.sinyi.com.tw/buy/list/Yilan-county/default-desc/4
,3430RF,近羅東休閒透天渡假屋,24.6959973,121.7357913,['https://res.sinyi.com.tw/buy/3430RF/smallimg/A.JPG'],https://res.sinyi.com.tw/buy/3430RF/bigimg/A.JPG,,,,,0.0,宜蘭縣三星鄉五分路一段,24.9年,['D'],['N'],1250,1250,61.15,27.01,1,59.25,5房2廳5衛,1-4,4,False,,"['7', '6', '4', '5', '2', '20']",685,False,False,https://sinyi.in/o/3430RF/0/3,2,1,,1,False,False,266,1.0,,5房2廳5衛,False,False,宜蘭縣,Yilan-county,4,https://www.sinyi.com.tw/buy/list/Yilan-county/default-desc/4
,35436E,礁溪臨路農地Ｂ,24.834036378516,121.78801754669,['https://res.sinyi.com.tw/buy/35436E/smallimg/A.JPG'],https://res.sinyi.com.tw/buy/35436E/bigimg/A.JPG,,,,,10.8,宜蘭縣礁溪鄉白雲六路,--,['I'],['I'],2888,3200,0.0,759.73,0,-1.0,,,,False,,['100'],6,False,False,https://sinyi.in/o/35436E/0/3,2,1,,3,False,False,262,1.0,,,False,False,宜蘭縣,Yilan-county,4,https://www.sinyi.com.tw/buy/list/Yilan-county/default-desc/4
,3561YX,宜蘭三星清幽透天,24.697452,121.715546,['https://res.sinyi.com.tw/buy/3561YX/smallimg/A.JPG'],https://res.sinyi.com.tw/buy/3561YX/bigimg/A.JPG,,,,,-6.95,宜蘭縣三星鄉中興路一段,27.0年,['D'],['N'],1180,1098,44.74,40.6,0,38.99,3房3廳2衛,1-2,2,False,,"['1', '6', '3', '4']",503,False,False,https://sinyi.in/o/3561YX/0/3,2,1,,1,False,False,266,1.0,,3房3廳2衛,False,False,宜蘭縣,Yilan-county,4,https://www.sinyi.com.tw/buy/list/Yilan-county/default-desc/4
,60905A,礁溪臨路農地Ａ,24.834349181375,121.78778100661,['https://res.sinyi.com.tw/buy/60905A/smallimg/A.JPG'],https://res.sinyi.com.tw/buy/60905A/bigimg/A.JPG,,,,,10.8,宜蘭縣礁溪鄉白雲六路,--,['I'],['I'],2888,3200,0.0,759.73,0,-1.0,,,,False,,['100'],6,False,False,https://sinyi.in/o/60905A/0/3,2,1,,3,False,False,262,1.0,,,False,False,宜蘭縣,Yilan-county,4,https://www.sinyi.com.tw/buy/list/Yilan-county/default-desc/4
,3996WN,宜蘭三星鄉農地,24.65281,121.71362,['https://res.sinyi.com.tw/buy/3996WN/smallimg/A.JPG'],https://res.sinyi.com.tw/buy/3996WN/bigimg/A.JPG,,,,,0.0,宜蘭縣三星鄉農義路一段,--,['I'],['I'],2350,2350,0.0,1535.46,0,-1.0,,,,False,,['100'],4,False,False,https://sinyi.in/o/3996WN/0/3,2,1,,3,False,False,266,1.0,,,False,False,宜蘭縣,Yilan-county,4,https://www.sinyi.com.tw/buy/list/Yilan-county/default-desc/4
,4106QT,冬山再起＊綠蔭盎然美築,24.670245,121.81053,['https://res.sinyi.com.tw/buy/4106QT/smallimg/A.JPG'],https://res.sinyi.com.tw/buy/4106QT/bigimg/A.JPG,,,,,0.0,宜蘭縣冬山鄉東八路,2.4年,"['G', 'H']","['G', 'H']",1780,1780,27.82,512.46,0,27.82,1廳,1-1,1,False,,"['1', '100']",23,False,False,https://sinyi.in/o/4106QT/0/3,2,1,,1,False,False,269,1.0,,1廳,False,False,宜蘭縣,Yilan-county,4,https://www.sinyi.com.tw/buy/list/Yilan-county/default-desc/4
,4300XY,★宜蘭大學旁方正黃金土地,24.746763,121.741145,['https://res.sinyi.com.tw/buy/4300XY/smallimg/A.JPG'],https://res.sinyi.com.tw/buy/4300XY/bigimg/A.JPG,,,,,0.0,宜蘭縣宜蘭市女中路,--,['I'],['I'],4588,4588,0.0,83.99,0,-1.0,,,,False,,"['18', '100', '107', '111']",34,False,False,https://sinyi.in/o/4300XY/0/3,2,1,,3,False,False,260,1.0,,,False,False,宜蘭縣,Yilan-county,4,https://www.sinyi.com.tw/buy/list/Yilan-county/default-desc/4
,1256RB,礁溪網美風民宿透天,24.83344,121.777145,['https://res.sinyi.com.tw/buy/1256RB/smallimg/A.JPG'],https://res.sinyi.com.tw/buy/1256RB/bigimg/A.JPG,,,,,0.0,宜蘭縣礁溪鄉公園北路,1.8年,"['D', 'F']","['N', 'F']",5800,5800,140.37,63.61,1,127.03,4房5衛,1-5,5,True,['9'],"['7', '3', '4', '5', '2', '16', '18', '102', '107']",201,False,False,https://sinyi.in/o/1256RB/0/3,2,1,,1,False,False,262,3.0,2廳,4房2廳5衛,False,False,宜蘭縣,Yilan-county,4,https://www.sinyi.com.tw/buy/list/Yilan-county/default-desc/4
,2151TR,礁溪仁愛路市區稀有寶地Ａ,24.825363616844,121.76743701106,['https://res.sinyi.com.tw/buy/2151TR/smallimg/A.JPG'],https://res.sinyi.com.tw/buy/2151TR/bigimg/A.JPG,,,,,0.0,宜蘭縣礁溪鄉仁愛路,--,['I'],['I'],1468,1468,0.0,20.03,0,-1.0,,,,False,,"['16', '18', '19', '100', '107']",29,False,False,https://sinyi.in/o/2151TR/0/3,2,1,,3,False,False,262,1.0,,,False,False,宜蘭縣,Yilan-county,4,https://www.sinyi.com.tw/buy/list/Yilan-county/default-desc/4
,59890P,礁溪仁愛路市區稀有寶地Ｃ,24.825383054931,121.76743159116,['https://res.sinyi.com.tw/buy/59890P/smallimg/A.JPG'],https://res.sinyi.com.tw/buy/59890P/bigimg/A.JPG,,,,,0.0,宜蘭縣礁溪鄉仁愛路,--,['I'],['I'],499,499,0.0,7.05,0,-1.0,,,,False,,"['16', '18', '19', '100', '107']",42,False,False,https://sinyi.in/o/59890P/0/3,2,1,,3,False,False,262,1.0,,,False,False,宜蘭縣,Yilan-county,4,https://www.sinyi.com.tw/buy/list/Yilan-county/default-desc/4
,8815UV,礁溪仁愛路市區稀有寶地Ｄ,24.825344124427,121.76745301542,['https://res.sinyi.com.tw/buy/8815UV/smallimg/A.JPG'],https://res.sinyi.com.tw/buy/8815UV/bigimg/A.JPG,,,,,0.0,宜蘭縣礁溪鄉仁愛路,--,['I'],['I'],998,998,0.0,13.17,0,-1.0,,,,False,,"['16', '18', '19', '100', '107']",9,False,False,https://sinyi.in/o/8815UV/0/3,2,1,,3,False,False,262,1.0,,,False,False,宜蘭縣,Yilan-county,4,https://www.sinyi.com.tw/buy/list/Yilan-county/default-desc/4
,9087JD,礁溪仁愛路市區稀有寶地Ｂ,24.825314873517,121.76745303299,['https://res.sinyi.com.tw/buy/9087JD/smallimg/A.JPG'],https://res.sinyi.com.tw/buy/9087JD/bigimg/A.JPG,,,,,0.0,宜蘭縣礁溪鄉仁愛路,--,['I'],['I'],988,988,0.0,12.97,0,-1.0,,,,False,,"['16', '18', '19', '100', '107']",7,False,False,https://sinyi.in/o/9087JD/0/3,2,1,,3,False,False,262,1.0,,,False,False,宜蘭縣,Yilan-county,4,https://www.sinyi.com.tw/buy/list/Yilan-county/default-desc/4
,1124ZP,蘇澳精裝溫馨樂活透天,24.575962,121.837203,['https://res.sinyi.com.tw/buy/1124ZP/smallimg/A.JPG'],https://res.sinyi.com.tw/buy/1124ZP/bigimg/A.JPG,,,,,0.0,宜蘭縣蘇澳鎮永樂路,44.5年,['D'],['N'],598,598,33.36,25.44,0,28.55,2房3廳1衛,1-2,2,False,,"['7', '6', '5', '20']",150,False,False,https://sinyi.in/o/1124ZP/0/3,2,1,,1,False,False,270,1.0,1房1衛,3房3廳2衛,False,False,宜蘭縣,Yilan-county,4,https://www.sinyi.com.tw/buy/list/Yilan-county/default-desc/4
,52799B,礁溪白玉稀有寶地,24.83297,121.78779,['https://res.sinyi.com.tw/buy/52799B/smallimg/A.JPG'],https://res.sinyi.com.tw/buy/52799B/bigimg/A.JPG,,,,,0.0,宜蘭縣礁溪鄉份尾一路,--,['I'],['I'],3998,3998,0.0,176.66,0,-1.0,,,,False,,['100'],12,False,False,https://sinyi.in/o/52799B/0/3,2,1,,3,False,False,262,1.0,,,False,False,宜蘭縣,Yilan-county,4,https://www.sinyi.com.tw/buy/list/Yilan-county/default-desc/4
,4903YN,大馬路旁大地坪透天店面,24.630696,121.796965,['https://res.sinyi.com.tw/buy/4903YN/smallimg/A.JPG'],https://res.sinyi.com.tw/buy/4903YN/bigimg/A.JPG,,,,,0.0,宜蘭縣冬山鄉冬山路一段,54.9年,['D'],['N'],1788,1788,16.94,70.09,0,16.94,1廳,1-1,1,False,,"['7', '6', '3', '4', '5', '19', '107']",128,False,False,https://sinyi.in/o/4903YN/0/3,2,1,,1,False,False,269,1.0,2房1廳1衛,2房2廳1衛,False,False,宜蘭縣,Yilan-county,4,https://www.sinyi.com.tw/buy/list/Yilan-county/default-desc/4
,7050SB,宜蘭透天豪華民宿,24.697071,121.822173,['https://res.sinyi.com.tw/buy/7050SB/smallimg/A.JPG'],https://res.sinyi.com.tw/buy/7050SB/bigimg/A.JPG,,,,,0.0,宜蘭縣五結鄉大眾三路,8.0年,['D'],['N'],2488,2488,91.21,154.3,1,89.3,4房4廳5衛,1-3,3,False,,"['7', '3', '4', '5']",497,False,False,https://sinyi.in/o/7050SB/0/3,2,1,,1,False,False,268,1.0,,4房4廳5衛,False,False,宜蘭縣,Yilan-county,4,https://www.sinyi.com.tw/buy/list/Yilan-county/default-desc/4
,4937AW,心旅蘭陽◆宜蘭透天,24.756786,121.756867,['https://res.sinyi.com.tw/buy/4937AW/smallimg/A.JPG'],https://res.sinyi.com.tw/buy/4937AW/bigimg/A.JPG,,,,,0.0,宜蘭縣宜蘭市新民路,34.6年,"['D', 'E']","['N', 'E']",3780,3780,152.02,40.24,1,144.19,8房8廳5衛,1-5,5,False,,"['4', '5', '2', '16', '18', '19', '107']",77,False,False,https://sinyi.in/o/4937AW/0/3,2,1,,1,False,False,260,1.0,,8房8廳5衛,False,False,宜蘭縣,Yilan-county,5,https://www.sinyi.com.tw/buy/list/Yilan-county/default-desc/5
,1037FQ,礁溪優質民宿,24.826594,121.769806,['https://res.sinyi.com.tw/buy/1037FQ/smallimg/A.JPG'],https://res.sinyi.com.tw/buy/1037FQ/bigimg/A.JPG,,,,,0.0,宜蘭縣礁溪鄉仁愛路,37.7年,['D'],['N'],6980,6980,62.31,31.31,1,55.79,4房3廳2衛,1-3,3,False,,"['7', '16', '18', '107']",22,False,False,https://sinyi.in/o/1037FQ/0/3,2,1,,1,False,False,262,1.0,1衛,4房3廳3衛,False,False,宜蘭縣,Yilan-county,5,https://www.sinyi.com.tw/buy/list/Yilan-county/default-desc/5
,7181QD,方正土地２３１坪,24.830383,121.774455,['https://res.sinyi.com.tw/buy/7181QD/smallimg/A.JPG'],https://res.sinyi.com.tw/buy/7181QD/bigimg/A.JPG,,,,,0.0,宜蘭縣礁溪鄉健康路,--,['I'],['I'],23000,23000,0.0,231.25,0,-1.0,,,,False,,"['16', '18', '107']",19,False,False,https://sinyi.in/o/7181QD/0/3,2,1,,3,False,False,262,3.0,,,False,False,宜蘭縣,Yilan-county,5,https://www.sinyi.com.tw/buy/list/Yilan-county/default-desc/5
,1860YX,宜蘭中福酒廠後方農地Ａ,24.663668,121.709946,['https://res.sinyi.com.tw/buy/1860YX/smallimg/A.JPG'],https://res.sinyi.com.tw/buy/1860YX/bigimg/A.JPG,,,,,0.0,宜蘭縣三星鄉大隱七路,--,['I'],['I'],1680,1680,0.0,816.89,0,-1.0,,,,False,,['100'],21,False,False,https://sinyi.in/o/1860YX/0/3,2,1,,3,False,False,266,1.0,,,False,False,宜蘭縣,Yilan-county,5,https://www.sinyi.com.tw/buy/list/Yilan-county/default-desc/5
,3866GV,宜蘭中福酒廠後方農地Ｂ,24.66339,121.710143,['https://res.sinyi.com.tw/buy/3866GV/smallimg/A.JPG'],https://res.sinyi.com.tw/buy/3866GV/bigimg/A.JPG,,,,,0.0,宜蘭縣三星鄉大隱七路,--,['I'],['I'],1280,1280,0.0,604.82,0,-1.0,,,,False,,['100'],10,False,False,https://sinyi.in/o/3866GV/0/3,2,1,,3,False,False,266,1.0,,,False,False,宜蘭縣,Yilan-county,5,https://www.sinyi.com.tw/buy/list/Yilan-county/default-desc/5
,46510J,【宜蘭礁溪】福氣土地,24.81647,121.79861,['https://res.sinyi.com.tw/buy/46510J/smallimg/A.JPG'],https://res.sinyi.com.tw/buy/46510J/bigimg/A.JPG,,,,,0.0,宜蘭縣礁溪鄉大塭路,--,['I'],['I'],3388,3388,0.0,1218.74,0,-1.0,,,,False,,['100'],17,False,False,https://sinyi.in/o/46510J/0/3,2,1,,3,False,False,262,1.0,,,False,False,宜蘭縣,Yilan-county,5,https://www.sinyi.com.tw/buy/list/Yilan-county/default-desc/5
,0018SR,宜蘭壯圍開心農場,24.741123,121.794691,['https://res.sinyi.com.tw/buy/0018SR/smallimg/A.JPG'],https://res.sinyi.com.tw/buy/0018SR/bigimg/A.JPG,,,,,-19.15,宜蘭縣壯圍鄉中央路二段,--,['I'],['I'],804,650,0.0,401.65,0,-1.0,,,,False,,[],32,False,False,https://sinyi.in/o/0018SR/0/3,2,1,,3,False,False,263,1.0,,,False,False,宜蘭縣,Yilan-county,5,https://www.sinyi.com.tw/buy/list/Yilan-county/default-desc/5
,9932GG,蘇澳都計亮麗總部暨物流,24.61063,121.849748,['https://res.sinyi.com.tw/buy/9932GG/smallimg/A.JPG'],https://res.sinyi.com.tw/buy/9932GG/bigimg/A.JPG,,,,,0.0,宜蘭縣蘇澳鎮三民路,6.7年,"['H', 'G']","['H', 'G']",165000,165000,7892.41,5508.73,1,6317.36,30房10廳18衛,1-6,6,True,['6'],"['7', '6', '4', '5', '102']",243,False,False,https://sinyi.in/o/9932GG/0/3,2,1,,1,False,False,270,3.0,,30房10廳18衛,False,False,宜蘭縣,Yilan-county,5,https://www.sinyi.com.tw/buy/list/Yilan-county/default-desc/5
,2228YF,礁溪８５６坪溫泉住宅地,24.82634,121.759067,['https://res.sinyi.com.tw/buy/2228YF/smallimg/A.JPG'],https://res.sinyi.com.tw/buy/2228YF/bigimg/A.JPG,,,,,0.0,宜蘭縣礁溪鄉得子三路,--,['I'],['I'],55688,55688,0.0,855.59,0,-1.0,,,,False,,[],13,False,False,https://sinyi.in/o/2228YF/0/3,2,1,,3,False,False,262,3.0,,,False,False,宜蘭縣,Yilan-county,5,https://www.sinyi.com.tw/buy/list/Yilan-county/default-desc/5
,2238HF,礁溪３８２４溫泉住宅地,24.82652,121.75888,['https://res.sinyi.com.tw/buy/2238HF/smallimg/A.JPG'],https://res.sinyi.com.tw/buy/2238HF/bigimg/A.JPG,,,,,0.0,宜蘭縣礁溪鄉得子三路,--,['I'],['I'],248608,248608,0.0,3823.87,0,-1.0,,,,False,,[],15,False,False,https://sinyi.in/o/2238HF/0/3,2,1,,3,False,False,262,3.0,,,False,False,宜蘭縣,Yilan-county,5,https://www.sinyi.com.tw/buy/list/Yilan-county/default-desc/5
,5313KW,礁溪２９６８溫泉住宅地,24.82662,121.75852,['https://res.sinyi.com.tw/buy/5313KW/smallimg/A.JPG'],https://res.sinyi.com.tw/buy/5313KW/bigimg/A.JPG,,,,,0.0,宜蘭縣礁溪鄉得子三路,--,['I'],['I'],192920,192920,0.0,2968.28,0,-1.0,,,,False,,[],7,False,False,https://sinyi.in/o/5313KW/0/3,2,1,,3,False,False,262,3.0,,,False,False,宜蘭縣,Yilan-county,5,https://www.sinyi.com.tw/buy/list/Yilan-county/default-desc/5
,5734MR,宜蘭壯圍．黎明京都．透天,24.773713,121.791758,['https://res.sinyi.com.tw/buy/5734MR/smallimg/A.JPG'],https://res.sinyi.com.tw/buy/5734MR/bigimg/A.JPG,,,,,0.0,宜蘭縣壯圍鄉永美路二段,6.0年,['D'],['D'],1688,1688,56.8,36.77,1,56.79,5房2廳4衛,1-3,3,True,['9'],"['7', '3', '4', '2', '20']",296,False,False,https://sinyi.in/o/5734MR/0/3,2,1,,1,False,False,263,1.0,,5房2廳4衛,False,False,宜蘭縣,Yilan-county,5,https://www.sinyi.com.tw/buy/list/Yilan-county/default-desc/5
,8198TU,礁溪轉運站旁增值透天,24.829643,121.776325,['https://res.sinyi.com.tw/buy/8198TU/smallimg/A.JPG'],https://res.sinyi.com.tw/buy/8198TU/bigimg/A.JPG,,,,,-8.0,宜蘭縣礁溪鄉公園路,47.4年,"['E', 'D']","['E', 'D']",12500,11500,118.42,47.28,0,104.76,14房2廳2衛,B1-4,4,False,,"['4', '107', '108']",61,False,False,https://sinyi.in/o/8198TU/0/3,2,1,,1,False,False,262,1.0,3房4衛,17房2廳6衛,False,False,宜蘭縣,Yilan-county,5,https://www.sinyi.com.tw/buy/list/Yilan-county/default-desc/5
,6204KZ,低總價溫泉度假套房,24.825849,121.77419,['https://res.sinyi.com.tw/buy/6204KZ/smallimg/A.JPG'],https://res.sinyi.com.tw/buy/6204KZ/bigimg/A.JPG,,,,,0.0,宜蘭縣礁溪鄉德陽街,30.4年,['M'],['M'],450,450,17.43,4.32,1,11.86,1房1廳1衛,5,6,False,,"['7', '6', '4', '5', '2', '12', '10', '16', '18', '20', '102', '107']",226,False,False,https://sinyi.in/o/6204KZ/0/3,2,1,,1,False,False,262,1.0,,1房1廳1衛,False,False,宜蘭縣,Yilan-county,5,https://www.sinyi.com.tw/buy/list/Yilan-county/default-desc/5
,53783Y,宜蘭市夜市透天咖啡旅店,24.756162986582,121.75728174318,['https://res.sinyi.com.tw/buy/53783Y/smallimg/A.JPG'],https://res.sinyi.com.tw/buy/53783Y/bigimg/A.JPG,,,,,0.0,宜蘭縣宜蘭市和睦路,25.5年,['E'],['E'],5400,5400,108.36,42.73,1,99.66,8房2廳10衛3室,1-3,3,False,,"['7', '10', '16', '18', '19', '102', '107']",29,False,False,https://sinyi.in/o/53783Y/0/3,2,1,,1,False,False,260,1.0,,8房2廳10衛3室,False,False,宜蘭縣,Yilan-county,5,https://www.sinyi.com.tw/buy/list/Yilan-county/default-desc/5
,4567WY,宜蘭壯圍雙面臨路方正農地,24.737240612376,121.79119010284,['https://res.sinyi.com.tw/buy/4567WY/smallimg/A.JPG'],https://res.sinyi.com.tw/buy/4567WY/bigimg/A.JPG,,,,,0.0,宜蘭縣壯圍鄉中央路一段,--,['I'],['I'],1365,1365,0.0,545.71,0,-1.0,,,,False,,[],25,False,False,https://sinyi.in/o/4567WY/0/3,2,1,,3,False,False,263,1.0,,,False,False,宜蘭縣,Yilan-county,5,https://www.sinyi.com.tw/buy/list/Yilan-county/default-desc/5
,0054PX,宜蘭三星開心農場,24.668394,121.621674,['https://res.sinyi.com.tw/buy/0054PX/smallimg/A.JPG'],https://res.sinyi.com.tw/buy/0054PX/bigimg/A.JPG,,,,,0.0,宜蘭縣三星鄉東興路,--,['I'],['I'],90,90,0.0,95.18,0,-1.0,,,,False,,[],12,False,False,https://sinyi.in/o/0054PX/0/3,2,1,,3,False,False,266,1.0,,,False,False,宜蘭縣,Yilan-county,5,https://www.sinyi.com.tw/buy/list/Yilan-county/default-desc/5
,3808VD,三星經典農舍,24.667641,121.678484,['https://res.sinyi.com.tw/buy/3808VD/smallimg/A.JPG'],https://res.sinyi.com.tw/buy/3808VD/bigimg/A.JPG,,,,,0.0,宜蘭縣三星鄉三星路三段,2.0年,['D'],['D'],3680,3680,115.1,452.24,1,115.1,5房3廳6衛,1-3,3,False,,"['7', '2', '20', '102', '111']",185,False,False,https://sinyi.in/o/3808VD/0/3,2,1,,1,False,False,266,1.0,,5房3廳6衛,False,False,宜蘭縣,Yilan-county,5,https://www.sinyi.com.tw/buy/list/Yilan-county/default-desc/5
,4719TD,景觀海景別墅,24.943124,121.901905,['https://res.sinyi.com.tw/buy/4719TD/smallimg/A.JPG'],https://res.sinyi.com.tw/buy/4719TD/bigimg/A.JPG,,,,,0.0,宜蘭縣頭城鎮濱海路六段,3.8年,['D'],['N'],1780,1780,80.33,28.12,1,49.96,5房2廳3衛,B1-3,3,True,['6'],"['7', '3', '4', '2', '12']",103,False,False,https://sinyi.in/o/4719TD/0/3,2,1,,1,False,False,261,1.0,,5房2廳3衛,False,False,宜蘭縣,Yilan-county,5,https://www.sinyi.com.tw/buy/list/Yilan-county/default-desc/5
,6296PN,宜蘭礁溪大欣翠庭套房,24.820122,121.767518,['https://res.sinyi.com.tw/buy/6296PN/smallimg/A.JPG'],https://res.sinyi.com.tw/buy/6296PN/bigimg/A.JPG,,,,,0.0,宜蘭縣礁溪鄉大忠路,32.5年,['M'],['M'],250,250,13.07,2.42,0,8.13,1房1衛,5,6,False,,"['2', '18', '19', '102', '107']",465,False,False,https://sinyi.in/o/6296PN/0/3,2,1,,1,False,False,262,1.0,,1房1衛,False,False,宜蘭縣,Yilan-county,5,https://www.sinyi.com.tw/buy/list/Yilan-county/default-desc/5
,0754NC,小城故事。美好透天厝好美,24.732717,121.799114,['https://res.sinyi.com.tw/buy/0754NC/smallimg/A.JPG'],https://res.sinyi.com.tw/buy/0754NC/bigimg/A.JPG,,,,,0.0,宜蘭縣壯圍鄉古結路,26.9年,['D'],['N'],888,888,56.53,20.73,1,53.52,4房3廳3衛,1-4,4,False,,"['7', '5']",160,False,False,https://sinyi.in/o/0754NC/0/3,2,1,,1,False,False,263,1.0,,4房3廳3衛,False,False,宜蘭縣,Yilan-county,6,https://www.sinyi.com.tw/buy/list/Yilan-county/default-desc/6
,5737VU,宜蘭市黃金透店,24.757857,121.75564,['https://res.sinyi.com.tw/buy/5737VU/smallimg/A.JPG'],https://res.sinyi.com.tw/buy/5737VU/bigimg/A.JPG,,,,,0.0,宜蘭縣宜蘭市崇聖街,55.6年,['K'],['K'],2480,2480,41.08,51.83,0,32.65,1廳1衛,1-1,1,False,,"['107', '110', '111']",118,False,False,https://sinyi.in/o/5737VU/0/3,2,1,,1,False,False,260,1.0,4房3廳3衛,4房4廳4衛,False,False,宜蘭縣,Yilan-county,6,https://www.sinyi.com.tw/buy/list/Yilan-county/default-desc/6
,67298F,宜蘭千坪土地,24.662535,121.577465,['https://res.sinyi.com.tw/buy/67298F/smallimg/A.JPG'],https://res.sinyi.com.tw/buy/67298F/bigimg/A.JPG,,,,,0.0,宜蘭縣大同鄉松羅三段,--,['I'],['I'],200,200,0.0,1543.74,0,-1.0,,,,False,,[],60,False,False,https://sinyi.in/o/67298F/0/3,2,1,,3,False,False,267,1.0,,,False,False,宜蘭縣,Yilan-county,6,https://www.sinyi.com.tw/buy/list/Yilan-county/default-desc/6
,4375HF,員山落羽松,24.72791,121.7169,['https://res.sinyi.com.tw/buy/4375HF/smallimg/A.JPG'],https://res.sinyi.com.tw/buy/4375HF/bigimg/A.JPG,,,,,0.0,宜蘭縣員山鄉尚深路,--,['I'],['I'],3533,3533,0.0,1413.45,0,-1.0,,,,False,,[],12,False,False,https://sinyi.in/o/4375HF/0/3,2,1,,3,False,False,264,3.0,,,False,False,宜蘭縣,Yilan-county,6,https://www.sinyi.com.tw/buy/list/Yilan-county/default-desc/6
,4434KS,宜蘭冬山６１０坪方正農地,24.672034,121.731062,['https://res.sinyi.com.tw/buy/4434KS/smallimg/A.JPG'],https://res.sinyi.com.tw/buy/4434KS/bigimg/A.JPG,,,,,0.0,宜蘭縣冬山鄉柯林一路,--,['I'],['I'],1468,1468,0.0,610.0,0,-1.0,,,,False,,['19'],14,False,False,https://sinyi.in/o/4434KS/0/3,2,1,,3,False,False,269,3.0,,,False,False,宜蘭縣,Yilan-county,6,https://www.sinyi.com.tw/buy/list/Yilan-county/default-desc/6
,6652SL,宜蘭臨路三分地,24.77573,121.812332,['https://res.sinyi.com.tw/buy/6652SL/smallimg/A.JPG'],https://res.sinyi.com.tw/buy/6652SL/bigimg/A.JPG,,,,,0.0,宜蘭縣壯圍鄉南北一路,--,['I'],['I'],898,898,0.0,909.01,0,-1.0,,,,False,,['16'],11,False,False,https://sinyi.in/o/6652SL/0/3,2,1,,3,False,False,263,1.0,,,False,False,宜蘭縣,Yilan-county,6,https://www.sinyi.com.tw/buy/list/Yilan-county/default-desc/6
,XS61611HB,頭城烏石港段,24.8576121,121.8234687,['https://img.hbhousing.com.tw/pictures/A536/A536XS61611a.jpg'],https://img.hbhousing.com.tw/pictures/A536/A536XS61611a.jpg,,,,,0.0,宜蘭縣頭城鎮頭城鎮,--,['I'],['I'],0,2848,0.0,143.81,0,-1.0,,0,0,False,,[],11,False,False,https://sinyi.in/o/XS61611HB/0/3,0,2,,3,False,False,261,,,,False,False,宜蘭縣,Yilan-county,6,https://www.sinyi.com.tw/buy/list/Yilan-county/default-desc/6
,OB20034GH,宜蘭冬山鄉柯林一段土地,24.635222,121.792444,['https://img.great-home.com.tw/pictures/H002/H002OB20034a.jpg'],https://img.great-home.com.tw/pictures/H002/H002OB20034a.jpg,,,,,0.0,宜蘭縣冬山鄉柯林一段,--,['I'],['I'],0,1833,0.0,611.07,0,-1.0,,0,0,False,,[],9,False,False,https://sinyi.in/o/OB20034GH/0/3,0,2,,3,False,False,269,,,,False,False,宜蘭縣,Yilan-county,6,https://www.sinyi.com.tw/buy/list/Yilan-county/default-desc/6
,WS17253HB,近羅運旁農地E163,24.700594731,121.73497885,['https://img.hbhousing.com.tw/pictures/A669/A669WS17253a.jpg'],https://img.hbhousing.com.tw/pictures/A669/A669WS17253a.jpg,,,,,0.0,宜蘭縣三星鄉XX路,--,['I'],['I'],0,890,0.0,564.37,0,-1.0,,0,0,False,,[],2,False,False,https://sinyi.in/o/WS17253HB/0/3,0,2,,3,False,False,266,,,,False,False,宜蘭縣,Yilan-county,6,https://www.sinyi.com.tw/buy/list/Yilan-county/default-desc/6
,WS27501HB,礁溪白石隱清水模渡假屋A,24.837804,121.781654,['https://img.hbhousing.com.tw/pictures/A536/A536WS27501a.jpg'],https://img.hbhousing.com.tw/pictures/A536/A536WS27501a.jpg,,,,,0.0,宜蘭縣礁溪鄉白石腳路,6.2年,['M'],['M'],0,930,24.74,0.0,0,14.53,1衛,1,4,False,,[],79,False,False,https://sinyi.in/o/WS27501HB/0/3,0,2,,1,False,False,262,,,1衛,False,False,宜蘭縣,Yilan-county,6,https://www.sinyi.com.tw/buy/list/Yilan-county/default-desc/6
,WS40101HB,上善若水好運宅,24.831898282,121.77495891,['https://img.hbhousing.com.tw/pictures/A708/A708WS40101a.jpg'],https://img.hbhousing.com.tw/pictures/A708/A708WS40101a.jpg,,,,,0.0,宜蘭縣礁溪鄉公園路,11.4年,['L'],['L'],0,1238,31.33,5.8,0,14.3,1房1廳1衛,4,15,False,,[],20,False,False,https://sinyi.in/o/WS40101HB/0/3,0,2,,1,False,False,262,,,1房1廳1衛,False,False,宜蘭縣,Yilan-county,6,https://www.sinyi.com.tw/buy/list/Yilan-county/default-desc/6
,WS66233HB,蘇澳交流道網紅咖啡工廠,24.6127565826,121.835346403,['https://img.hbhousing.com.tw/pictures/A325/A325WS66233a.jpg'],https://img.hbhousing.com.tw/pictures/A325/A325WS66233a.jpg,,,,,0.0,宜蘭縣蘇澳鎮仁愛路,8.8年,['D'],['D'],0,4680,185.77,227.55,1,185.77,,1-3,3,False,,[],15,False,False,https://sinyi.in/o/WS66233HB/0/3,0,2,,1,False,False,270,,,,False,False,宜蘭縣,Yilan-county,6,https://www.sinyi.com.tw/buy/list/Yilan-county/default-desc/6
,WS75128HB,頭城湯院子+坡車,24.8625314975,121.819401693,['https://img.hbhousing.com.tw/pictures/A344/A344WS75128a.jpg'],https://img.hbhousing.com.tw/pictures/A344/A344WS75128a.jpg,,,,,0.0,宜蘭縣頭城鎮文雅路,8.8年,['L'],['L'],0,708,28.13,5.95,1,11.53,1房2廳1衛,4,15,True,['6'],[],17,False,False,https://sinyi.in/o/WS75128HB/0/3,0,2,,1,False,False,261,,,1房2廳1衛,False,False,宜蘭縣,Yilan-county,6,https://www.sinyi.com.tw/buy/list/Yilan-county/default-desc/6
,XS132212HB,員山思源電梯大器農舍,24.7137582,121.7148719,['https://img.hbhousing.com.tw/pictures/A536/A536XS132212a.jpg'],https://img.hbhousing.com.tw/pictures/A536/A536XS132212a.jpg,,,,,0.0,宜蘭縣員山鄉思源路,1.7年,['K'],['K'],0,3286,121.04,518.17,0,105.5,5房2廳6衛,1-3,3,False,,[],16,False,False,https://sinyi.in/o/XS132212HB/0/3,0,2,,1,False,False,264,,,5房2廳6衛,False,False,宜蘭縣,Yilan-county,6,https://www.sinyi.com.tw/buy/list/Yilan-county/default-desc/6
,XS132754HB,專)生活在海邊。海邊第一排建地,24.859186,121.823673,['https://img.hbhousing.com.tw/pictures/A791/A791XS132754a.jpg'],https://img.hbhousing.com.tw/pictures/A791/A791XS132754a.jpg,,,,,0.0,宜蘭縣頭城鎮濱海路五段,--,['I'],['I'],0,6666,0.0,692.6,0,-1.0,,0,0,False,,[],20,False,False,https://sinyi.in/o/XS132754HB/0/3,0,2,,3,False,False,261,,,,False,False,宜蘭縣,Yilan-county,6,https://www.sinyi.com.tw/buy/list/Yilan-county/default-desc/6
,XS133668HB,梅花湖精緻美農舍,24.6511078707,121.732302353,['https://img.hbhousing.com.tw/pictures/A369/A369XS133668a.jpg'],https://img.hbhousing.com.tw/pictures/A369/A369XS133668a.jpg,,,,,0.0,宜蘭縣冬山鄉梅林路,16.8年,['K'],['K'],0,2580,40.96,304.94,0,40.96,3房3廳3衛,1-2,2,False,,[],7,False,False,https://sinyi.in/o/XS133668HB/0/3,0,2,,1,False,False,269,,,3房3廳3衛,False,False,宜蘭縣,Yilan-county,6,https://www.sinyi.com.tw/buy/list/Yilan-county/default-desc/6
,XS134527HB,近羅東百萬整修精美透天,24.6537189289,121.784042992,['https://img.hbhousing.com.tw/pictures/A471/A471XS134527a.jpg'],https://img.hbhousing.com.tw/pictures/A471/A471XS134527a.jpg,,,,,0.0,宜蘭縣冬山鄉珍珠一路,45.3年,['D'],['D'],0,898,28.53,24.43,0,28.53,4房2廳4衛,1-2,0,False,,[],42,False,False,https://sinyi.in/o/XS134527HB/0/3,0,2,,1,False,False,269,,,4房2廳4衛,False,False,宜蘭縣,Yilan-county,6,https://www.sinyi.com.tw/buy/list/Yilan-county/default-desc/6
,XS135003HB,員山賢德路田園老宅,24.7338114462,121.721108145,['https://img.hbhousing.com.tw/pictures/A490/A490XS135003a.jpg'],https://img.hbhousing.com.tw/pictures/A490/A490XS135003a.jpg,,,,,0.0,宜蘭縣員山鄉賢德路二段,48.9年,['K'],['K'],0,1780,29.79,757.44,0,29.79,2房2廳1衛,1,1,False,,[],12,False,False,https://sinyi.in/o/XS135003HB/0/3,0,2,,1,False,False,264,,,2房2廳1衛,False,False,宜蘭縣,Yilan-county,6,https://www.sinyi.com.tw/buy/list/Yilan-county/default-desc/6
,XS135695HB,礁溪市區別墅,24.8175443444,121.770171236,['https://img.hbhousing.com.tw/pictures/A536/A536XS135695a.jpg'],https://img.hbhousing.com.tw/pictures/A536/A536XS135695a.jpg,,,,,0.0,宜蘭縣礁溪鄉大義路,20.6年,['D'],['D'],0,1680,68.93,30.86,0,60.11,4房2廳3衛,1-4,4,True,['6'],[],70,False,False,https://sinyi.in/o/XS135695HB/0/3,0,2,,1,False,False,262,,,4房2廳3衛,False,False,宜蘭縣,Yilan-county,6,https://www.sinyi.com.tw/buy/list/Yilan-county/default-desc/6
,XS136321HB,安農溪孝親全新農舍,24.6756778844,121.699341431,['https://img.hbhousing.com.tw/pictures/A369/A369XS136321a.jpg'],https://img.hbhousing.com.tw/pictures/A369/A369XS136321a.jpg,,,,,0.0,宜蘭縣三星鄉行健五路,1.5年,['K'],['K'],0,3480,107.45,656.24,0,97.74,4房2廳4衛,1-2,2,False,,[],9,False,False,https://sinyi.in/o/XS136321HB/0/3,0,2,,1,False,False,266,,,4房2廳4衛,False,False,宜蘭縣,Yilan-county,6,https://www.sinyi.com.tw/buy/list/Yilan-county/default-desc/6
,XS136333HB,礁溪白鵝景觀農舍,24.8029471316,121.75755604,['https://img.hbhousing.com.tw/pictures/A776/A776XS136333a.jpg'],https://img.hbhousing.com.tw/pictures/A776/A776XS136333a.jpg,,,,,0.0,宜蘭縣礁溪鄉柴圍路,0.4年,['K'],['K'],0,2680,60.73,226.1,1,60.73,4房2廳5衛,1-3,0,False,,[],42,False,False,https://sinyi.in/o/XS136333HB/0/3,0,2,,1,False,False,262,,,4房2廳5衛,False,False,宜蘭縣,Yilan-county,7,https://www.sinyi.com.tw/buy/list/Yilan-county/default-desc/7
,XS137199HB,藍灣渡假海景套房,24.8577273921,121.832139653,['https://img.hbhousing.com.tw/pictures/A536/A536XS137199a.jpg'],https://img.hbhousing.com.tw/pictures/A536/A536XS137199a.jpg,,,,,0.0,宜蘭縣頭城鎮協天路,18.4年,['M'],['M'],0,568,18.63,3.82,0,11.67,1房1廳1衛,7,9,False,,[],44,False,False,https://sinyi.in/o/XS137199HB/0/3,0,2,,1,False,False,261,,,1房1廳1衛,False,False,宜蘭縣,Yilan-county,7,https://www.sinyi.com.tw/buy/list/Yilan-county/default-desc/7
,XS139988HB,壯圍國中都市計畫內農地,24.74679,121.79011,['https://img.hbhousing.com.tw/pictures/A715/A715XS139988a.jpg'],https://img.hbhousing.com.tw/pictures/A715/A715XS139988a.jpg,,,,,0.0,宜蘭縣壯圍鄉吉祥一段,--,['I'],['I'],0,2687,0.0,1357.08,0,-1.0,,0,0,False,,[],4,False,False,https://sinyi.in/o/XS139988HB/0/3,0,2,,3,False,False,263,,,,False,False,宜蘭縣,Yilan-county,7,https://www.sinyi.com.tw/buy/list/Yilan-county/default-desc/7
,XS140481HB,宜市陽明醫院旁全新電梯黃金店住,24.74816,121.76075,['https://img.hbhousing.com.tw/pictures/A715/A715XS140481a.jpg'],https://img.hbhousing.com.tw/pictures/A715/A715XS140481a.jpg,,,,,0.0,宜蘭縣宜蘭市陽明路,5.7年,['D'],['D'],0,2880,66.83,29.53,1,66.83,3房2廳4衛,1-4,4,False,,[],55,False,False,https://sinyi.in/o/XS140481HB/0/3,0,2,,1,False,False,260,,,3房2廳4衛,False,False,宜蘭縣,Yilan-county,7,https://www.sinyi.com.tw/buy/list/Yilan-county/default-desc/7
,XS140601HB,礁溪四城火車站國五旁農糧加工室,24.7868871597,121.764133127,['https://img.hbhousing.com.tw/pictures/A776/A776XS140601a.jpg'],https://img.hbhousing.com.tw/pictures/A776/A776XS140601a.jpg,,,,,0.0,宜蘭縣礁溪鄉瑪璘路,0.4年,['K'],['K'],0,1050,18.73,302.5,0,18.73,,1,0,False,,[],46,False,False,https://sinyi.in/o/XS140601HB/0/3,0,2,,1,False,False,262,,,,False,False,宜蘭縣,Yilan-county,7,https://www.sinyi.com.tw/buy/list/Yilan-county/default-desc/7
,XS141147HB,冬山近羅東大面寬足坪農地,24.635222,121.792444,['https://img.hbhousing.com.tw/pictures/A490/A490XS141147a.jpg'],https://img.hbhousing.com.tw/pictures/A490/A490XS141147a.jpg,,,,,0.0,宜蘭縣冬山鄉柯林二段,--,['I'],['I'],0,1525,0.0,907.81,0,-1.0,,0,0,False,,[],3,False,False,https://sinyi.in/o/XS141147HB/0/3,0,2,,3,False,False,269,,,,False,False,宜蘭縣,Yilan-county,7,https://www.sinyi.com.tw/buy/list/Yilan-county/default-desc/7
,XS141290HB,大溪海景電梯透B6,24.943152,121.902013,['https://img.hbhousing.com.tw/pictures/A708/A708XS141290a.jpg'],https://img.hbhousing.com.tw/pictures/A708/A708XS141290a.jpg,,,,,0.0,宜蘭縣頭城鎮濱海路六段,3.8年,['D'],['D'],0,1775,97.62,30.1,1,89.89,4房2廳3衛,-1-3,0,False,,[],52,False,False,https://sinyi.in/o/XS141290HB/0/3,0,2,,1,False,False,261,,,4房2廳3衛,False,False,宜蘭縣,Yilan-county,7,https://www.sinyi.com.tw/buy/list/Yilan-county/default-desc/7
,XS141318HB,羅東蛋黃黃金滿租八套店面,24.677423245,121.763316712,['https://img.hbhousing.com.tw/pictures/A490/A490XS141318a.jpg'],https://img.hbhousing.com.tw/pictures/A490/A490XS141318a.jpg,,,,,0.0,宜蘭縣羅東鎮純精路二段,46.5年,['E'],['E'],0,3580,75.96,28.44,0,75.96,8房2廳9衛,1-4,4,False,,[],6,False,False,https://sinyi.in/o/XS141318HB/0/3,0,2,,1,False,False,265,,,8房2廳9衛,False,False,宜蘭縣,Yilan-county,7,https://www.sinyi.com.tw/buy/list/Yilan-county/default-desc/7
,XS141660HB,近高鐵透天A099,24.720776713094,121.77731250352,['https://img.hbhousing.com.tw/pictures/A361/A361XS141660a.jpg'],https://img.hbhousing.com.tw/pictures/A361/A361XS141660a.jpg,,,,,0.0,宜蘭縣壯圍鄉XX路四段,30.4年,['D'],['D'],0,1700,47.26,19.46,0,44.8,5房2廳3衛,1-4,4,False,,[],9,False,False,https://sinyi.in/o/XS141660HB/0/3,0,2,,1,False,False,263,,,5房2廳3衛,False,False,宜蘭縣,Yilan-county,7,https://www.sinyi.com.tw/buy/list/Yilan-county/default-desc/7
,XS141903HB,羽松全新四套房車庫別墅,24.7136281479,121.716510319,['https://img.hbhousing.com.tw/pictures/A471/A471XS141903a.jpg'],https://img.hbhousing.com.tw/pictures/A471/A471XS141903a.jpg,,,,,0.0,宜蘭縣員山鄉深洲路,0.9年,['D'],['D'],0,1130,46.04,25.98,1,46.04,4房2廳5衛,1-3,0,False,,[],78,False,False,https://sinyi.in/o/XS141903HB/0/3,0,2,,1,False,False,264,,,4房2廳5衛,False,False,宜蘭縣,Yilan-county,7,https://www.sinyi.com.tw/buy/list/Yilan-county/default-desc/7
,XS142210HB,宜大10房收租透天,24.7477391332,121.752136787,['https://img.hbhousing.com.tw/pictures/A490/A490XS142210a.jpg'],https://img.hbhousing.com.tw/pictures/A490/A490XS142210a.jpg,,,,,0.0,宜蘭縣宜蘭市農權路,49.7年,['D'],['D'],0,1188,48.3,40.22,0,48.3,10房3廳3衛,1-2,2,False,,[],52,False,False,https://sinyi.in/o/XS142210HB/0/3,0,2,,1,False,False,260,,,10房3廳3衛,False,False,宜蘭縣,Yilan-county,7,https://www.sinyi.com.tw/buy/list/Yilan-county/default-desc/7
,XS142222HB,近員山省道六套房電梯農舍,24.732300380251,121.66978691691,['https://img.hbhousing.com.tw/pictures/A776/A776XS142222a.jpg'],https://img.hbhousing.com.tw/pictures/A776/A776XS142222a.jpg,,,,,0.0,宜蘭縣員山鄉員山路一段,0.5年,['K'],['K'],0,2980,85.3,372.41,0,85.3,6房2廳7衛,1-3,0,False,,[],14,False,False,https://sinyi.in/o/XS142222HB/0/3,0,2,,1,False,False,264,,,6房2廳7衛,False,False,宜蘭縣,Yilan-county,7,https://www.sinyi.com.tw/buy/list/Yilan-county/default-desc/7
,XS142486HB,羅東後站大面寬精華店住,24.682234069,121.776881435,['https://img.hbhousing.com.tw/pictures/A490/A490XS142486a.jpg'],https://img.hbhousing.com.tw/pictures/A490/A490XS142486a.jpg,,,,,0.0,宜蘭縣五結鄉五結路３段,44.8年,['E'],['E'],0,3580,101.92,52.33,0,101.92,6房2廳6衛,-1-3,3,False,,[],4,False,False,https://sinyi.in/o/XS142486HB/0/3,0,2,,1,False,False,268,,,6房2廳6衛,False,False,宜蘭縣,Yilan-county,7,https://www.sinyi.com.tw/buy/list/Yilan-county/default-desc/7
,XS142709HB,礁溪白鵝農舍D025,24.8029471316,121.75755604,['https://img.hbhousing.com.tw/pictures/A670/A670XS142709a.jpg'],https://img.hbhousing.com.tw/pictures/A670/A670XS142709a.jpg,,,,,0.0,宜蘭縣礁溪鄉柴圍路,1.0年,['K'],['K'],0,2680,60.74,226.1,0,56.77,4房2廳5衛,1-3,3,False,,[],14,False,False,https://sinyi.in/o/XS142709HB/0/3,0,2,,1,False,False,262,,,4房2廳5衛,False,False,宜蘭縣,Yilan-county,7,https://www.sinyi.com.tw/buy/list/Yilan-county/default-desc/7
,XS143563HB,礁溪高樓層溫泉華廈C032,24.8261220964,121.764466865,['https://img.hbhousing.com.tw/pictures/A670/A670XS143563a.jpg'],https://img.hbhousing.com.tw/pictures/A670/A670XS143563a.jpg,,,,,0.0,宜蘭縣礁溪鄉德陽路,39.5年,['M'],['M'],0,858,31.17,16.33,0,29.34,4房2廳2衛,5,5,False,,[],7,False,False,https://sinyi.in/o/XS143563HB/0/3,0,2,,1,False,False,262,,,4房2廳2衛,False,False,宜蘭縣,Yilan-county,7,https://www.sinyi.com.tw/buy/list/Yilan-county/default-desc/7
,XS143766HB,宜蘭新民醫院商業區金店住,24.7573141121,121.754468214,['https://img.hbhousing.com.tw/pictures/A490/A490XS143766a.jpg'],https://img.hbhousing.com.tw/pictures/A490/A490XS143766a.jpg,,,,,0.0,宜蘭縣宜蘭市新民路,49.3年,['E'],['E'],0,5880,132.65,42.37,0,132.65,5房3廳4衛,1-4,4,False,,[],3,False,False,https://sinyi.in/o/XS143766HB/0/3,0,2,,1,False,False,260,,,5房3廳4衛,False,False,宜蘭縣,Yilan-county,7,https://www.sinyi.com.tw/buy/list/Yilan-county/default-desc/7
,XS144480HB,三星大洲出價好談便宜農地,24.700380548873,121.73039668119,['https://img.hbhousing.com.tw/pictures/A829/A829XS144480a.jpg'],https://img.hbhousing.com.tw/pictures/A829/A829XS144480a.jpg,,,,,0.0,宜蘭縣三星鄉大洲三段,--,['I'],['I'],0,1741,0.0,2902.21,0,-1.0,,0,0,False,,[],1,False,False,https://sinyi.in/o/XS144480HB/0/3,0,2,,3,False,False,266,,,,False,False,宜蘭縣,Yilan-county,7,https://www.sinyi.com.tw/buy/list/Yilan-county/default-desc/7
,XS144773HB,羅東純精路二房採光極佳電梯華廈,24.6842452485,121.766525864,['https://img.hbhousing.com.tw/pictures/A829/A829XS144773a.jpg'],https://img.hbhousing.com.tw/pictures/A829/A829XS144773a.jpg,,,,,0.0,宜蘭縣羅東鎮純精路三段,32.8年,['M'],['M'],0,598,21.73,3.97,0,19.6,2房1廳1衛,2,7,False,,[],14,False,False,https://sinyi.in/o/XS144773HB/0/3,0,2,,1,False,False,265,,,2房1廳1衛,False,False,宜蘭縣,Yilan-county,7,https://www.sinyi.com.tw/buy/list/Yilan-county/default-desc/7
,XS144793HB,冬山旁現代美學Villa(B),24.661412,121.7971921,['https://img.hbhousing.com.tw/pictures/A829/A829XS144793a.jpg'],https://img.hbhousing.com.tw/pictures/A829/A829XS144793a.jpg,,,,,0.0,宜蘭縣冬山鄉武罕六路,6.1年,['D'],['D'],0,1890,68.03,33.25,0,63.48,4房3廳4衛,1-3,3,False,,[],5,False,False,https://sinyi.in/o/XS144793HB/0/3,0,2,,1,False,False,269,,,4房3廳4衛,False,False,宜蘭縣,Yilan-county,7,https://www.sinyi.com.tw/buy/list/Yilan-county/default-desc/7
,XS144910HB,三星市區叭哩沙全新電梯農舍,24.6735887,121.6546562,['https://img.hbhousing.com.tw/pictures/A829/A829XS144910a.jpg'],https://img.hbhousing.com.tw/pictures/A829/A829XS144910a.jpg,,,,,0.0,宜蘭縣三星鄉楓林十一路,1.8年,['K'],['K'],0,2980,97.78,471.55,1,97.78,4房4廳5衛,1-3,3,False,,[],2,False,False,https://sinyi.in/o/XS144910HB/0/3,0,2,,1,False,False,266,,,4房4廳5衛,False,False,宜蘭縣,Yilan-county,7,https://www.sinyi.com.tw/buy/list/Yilan-county/default-desc/7
,XS144962HB,三星好日子大面寬農糧加工室,24.681949,121.697226,['https://img.hbhousing.com.tw/pictures/A829/A829XS144962a.jpg'],https://img.hbhousing.com.tw/pictures/A829/A829XS144962a.jpg,,,,,0.0,宜蘭縣三星鄉大排一路,0.7年,['K'],['K'],0,1288,33.58,163.98,0,33.58,2房2廳3衛,1,1,False,,[],3,False,False,https://sinyi.in/o/XS144962HB/0/3,0,2,,1,False,False,266,,,2房2廳3衛,False,False,宜蘭縣,Yilan-county,8,https://www.sinyi.com.tw/buy/list/Yilan-county/default-desc/8
,XS144964HB,冬山雙面路101電梯農舍,24.639528089547,121.76765606829,['https://img.hbhousing.com.tw/pictures/A592/A592XS144964a.jpg'],https://img.hbhousing.com.tw/pictures/A592/A592XS144964a.jpg,,,,,0.0,宜蘭縣冬山鄉義成路,0.8年,['K'],['K'],0,2550,101.4,364.93,1,101.4,7房2廳7衛,1-3,3,False,,[],0,False,False,https://sinyi.in/o/XS144964HB/0/3,0,2,,1,False,False,269,,,7房2廳7衛,False,False,宜蘭縣,Yilan-county,8,https://www.sinyi.com.tw/buy/list/Yilan-county/default-desc/8
,XS144975HB,礁溪星丞心I2,24.7875874283,121.785551806,['https://img.hbhousing.com.tw/pictures/A490/A490XS144975a.jpg'],https://img.hbhousing.com.tw/pictures/A490/A490XS144975a.jpg,,,,,0.0,宜蘭縣礁溪鄉踏踏三路,0.2年,['M'],['M'],0,950,33.72,0.0,0,22.71,3房2廳2衛,2,4,False,,[],4,False,False,https://sinyi.in/o/XS144975HB/0/3,0,2,,1,False,False,262,,,3房2廳2衛,False,False,宜蘭縣,Yilan-county,8,https://www.sinyi.com.tw/buy/list/Yilan-county/default-desc/8
,XS145135HB,礁溪巨星｜溫泉路暖心兩房,24.8279269823,121.773919326,['https://img.hbhousing.com.tw/pictures/A490/A490XS145135a.jpg'],https://img.hbhousing.com.tw/pictures/A490/A490XS145135a.jpg,,,,,0.0,宜蘭縣礁溪鄉溫泉路,30.2年,['L'],['L'],0,598,21.38,1.9,0,16.12,2房2廳1衛,4,12,False,,[],6,False,False,https://sinyi.in/o/XS145135HB/0/3,0,2,,1,False,False,262,,,2房2廳1衛,False,False,宜蘭縣,Yilan-county,8,https://www.sinyi.com.tw/buy/list/Yilan-county/default-desc/8
,XS145467HB,凱三絕版6米挑高山景3房,24.8241195172,121.765532641,['https://img.hbhousing.com.tw/pictures/A636/A636XS145467a.jpg'],https://img.hbhousing.com.tw/pictures/A636/A636XS145467a.jpg,,,,,0.0,宜蘭縣礁溪鄉德陽路,11.8年,['L'],['L'],0,1580,32.71,0.0,1,19.08,3房2廳2衛,14,14,True,['2'],[],0,False,False,https://sinyi.in/o/XS145467HB/0/3,0,2,,1,False,False,262,,,3房2廳2衛,False,False,宜蘭縣,Yilan-county,8,https://www.sinyi.com.tw/buy/list/Yilan-county/default-desc/8
,XS145503HB,高鐵擴大區潛力農地,24.720905,121.780392,['https://img.hbhousing.com.tw/pictures/A490/A490XS145503a.jpg'],https://img.hbhousing.com.tw/pictures/A490/A490XS145503a.jpg,,,,,0.0,宜蘭縣壯圍鄉新福六路,--,['I'],['I'],0,7111,0.0,1001.58,0,-1.0,,0,0,False,,[],0,False,False,https://sinyi.in/o/XS145503HB/0/3,0,2,,3,False,False,263,,,,False,False,宜蘭縣,Yilan-county,8,https://www.sinyi.com.tw/buy/list/Yilan-county/default-desc/8
,XS62037HB,礁溪大面寬美景農舍,24.7976154648,121.77802895,['https://img.hbhousing.com.tw/pictures/A536/A536XS62037a.jpg'],https://img.hbhousing.com.tw/pictures/A536/A536XS62037a.jpg,,,,,0.0,宜蘭縣礁溪鄉踏踏八路,1.8年,['K'],['K'],0,3600,93.76,610.32,0,90.22,4房2廳5衛,1-2,2,False,,[],14,False,False,https://sinyi.in/o/XS62037HB/0/3,0,2,,1,False,False,262,,,4房2廳5衛,False,False,宜蘭縣,Yilan-county,8,https://www.sinyi.com.tw/buy/list/Yilan-county/default-desc/8
,GS149711HB,全磊打｜新南4.5分農地,24.7299,121.81158,['https://img.hbhousing.com.tw/pictures/D330/D330GS149711a.jpg'],https://img.hbhousing.com.tw/pictures/D330/D330GS149711a.jpg,,,,,0.0,宜蘭縣壯圍鄉新南段,--,['I'],['I'],0,889,0.0,1377.89,0,-1.0,,0,0,False,,[],5,False,False,https://sinyi.in/o/GS149711HB/0/3,0,2,,3,False,False,263,,,,False,False,宜蘭縣,Yilan-county,8,https://www.sinyi.com.tw/buy/list/Yilan-county/default-desc/8
,TS135503HB,宜蘭花園新城透天雙車位,24.7471481389,121.736137924,['https://img.hbhousing.com.tw/pictures/A658/A658TS135503a.jpg'],https://img.hbhousing.com.tw/pictures/A658/A658TS135503a.jpg,,,,,0.0,宜蘭縣宜蘭市女中路三段,18.2年,['D'],['D'],0,1880,88.18,71.65,1,79.94,5房2廳5衛,1-4,4,True,['2'],[],82,False,False,https://sinyi.in/o/TS135503HB/0/3,0,2,,1,False,False,260,,,5房2廳5衛,False,False,宜蘭縣,Yilan-county,8,https://www.sinyi.com.tw/buy/list/Yilan-county/default-desc/8
,WS05733HB,礁溪秋水閣透天,24.8228092153,121.77256847,['https://img.hbhousing.com.tw/pictures/A708/A708WS05733a.jpg'],https://img.hbhousing.com.tw/pictures/A708/A708WS05733a.jpg,,,,,0.0,宜蘭縣礁溪鄉興農路,7.5年,['D'],['D'],0,1650,37.16,13.85,0,37.16,3房3衛,1-3,3,False,,[],28,False,False,https://sinyi.in/o/WS05733HB/0/3,0,2,,1,False,False,262,,,3房3衛,False,False,宜蘭縣,Yilan-county,8,https://www.sinyi.com.tw/buy/list/Yilan-county/default-desc/8
,WS38844HB,五結全新現代農舍,24.6979594309,121.802899948,['https://img.hbhousing.com.tw/pictures/A490/A490WS38844a.jpg'],https://img.hbhousing.com.tw/pictures/A490/A490WS38844a.jpg,,,,,0.0,宜蘭縣五結鄉大吉二路,1.8年,['K'],['K'],0,3680,112.0,439.77,0,101.1,6房3廳7衛,1-3,0,False,,[],10,False,False,https://sinyi.in/o/WS38844HB/0/3,0,2,,1,False,False,268,,,6房3廳7衛,False,False,宜蘭縣,Yilan-county,8,https://www.sinyi.com.tw/buy/list/Yilan-county/default-desc/8
,WS40002HB,礁溪國五交流道旁方正農地,24.823489,121.771106,['https://img.hbhousing.com.tw/pictures/A490/A490WS40002a.jpg'],https://img.hbhousing.com.tw/pictures/A490/A490WS40002a.jpg,,,,,0.0,宜蘭縣礁溪鄉實踐一段,--,['I'],['I'],0,1062,0.0,632.57,0,-1.0,,0,0,False,,[],10,False,False,https://sinyi.in/o/WS40002HB/0/3,0,2,,3,False,False,262,,,,False,False,宜蘭縣,Yilan-county,8,https://www.sinyi.com.tw/buy/list/Yilan-county/default-desc/8
,XB09219GH,羅東運動公園透天,24.676445813517,121.76642238888,['https://img.great-home.com.tw/pictures/H181/H181XB09219a.jpg'],https://img.great-home.com.tw/pictures/H181/H181XB09219a.jpg,,,,,0.0,宜蘭縣羅東鎮忠孝新村,46.3年,['D'],['D'],0,858,26.55,27.84,0,26.55,5房2廳3衛,1-2,2,False,,[],69,False,False,https://sinyi.in/o/XB09219GH/0/3,0,2,,1,False,False,265,,,5房2廳3衛,False,False,宜蘭縣,Yilan-county,8,https://www.sinyi.com.tw/buy/list/Yilan-county/default-desc/8
,XS130965HB,頭城稀有龜山海岸美景透天,24.8889969186,121.849288613,['https://img.hbhousing.com.tw/pictures/A636/A636XS130965a.jpg'],https://img.hbhousing.com.tw/pictures/A636/A636XS130965a.jpg,,,,,0.0,宜蘭縣頭城鎮濱海路二段,44.4年,['D'],['D'],0,1400,22.14,29.39,0,22.14,2房2廳2衛,1-2,2,False,,[],36,False,False,https://sinyi.in/o/XS130965HB/0/3,0,2,,1,False,False,261,,,2房2廳2衛,False,False,宜蘭縣,Yilan-county,8,https://www.sinyi.com.tw/buy/list/Yilan-county/default-desc/8
,XS131438HB,礁溪奇立丹百坪溫泉民宿,24.8212369641,121.777474969,['https://img.hbhousing.com.tw/pictures/A536/A536XS131438a.jpg'],https://img.hbhousing.com.tw/pictures/A536/A536XS131438a.jpg,,,,,0.0,宜蘭縣礁溪鄉奇立丹路,44.4年,['D'],['D'],0,3280,100.16,62.18,0,97.69,6房3廳7衛,1-3,3,True,['6'],[],20,False,False,https://sinyi.in/o/XS131438HB/0/3,0,2,,1,False,False,262,,,6房3廳7衛,False,False,宜蘭縣,Yilan-county,8,https://www.sinyi.com.tw/buy/list/Yilan-county/default-desc/8
,XS138236HB,火車站高樓精緻溫泉套房,24.8279269823,121.773919326,['https://img.hbhousing.com.tw/pictures/A730/A730XS138236a.jpg'],https://img.hbhousing.com.tw/pictures/A730/A730XS138236a.jpg,,,,,0.0,宜蘭縣礁溪鄉溫泉路,30.2年,['L'],['L'],0,458,15.46,1.32,0,11.19,1房1廳1衛,12,1,False,,[],58,False,False,https://sinyi.in/o/XS138236HB/0/3,0,2,,1,False,False,262,,,1房1廳1衛,False,False,宜蘭縣,Yilan-county,8,https://www.sinyi.com.tw/buy/list/Yilan-county/default-desc/8
,XS138715HB,風和山林挑高6米雙房雙湯屋,24.8297899718,121.769924647,['https://img.hbhousing.com.tw/pictures/A471/A471XS138715a.jpg'],https://img.hbhousing.com.tw/pictures/A471/A471XS138715a.jpg,,,,,0.0,宜蘭縣礁溪鄉德陽路,16.7年,['L'],['L'],0,968,23.98,5.29,1,12.84,2房2廳2衛,13,0,False,,[],20,False,False,https://sinyi.in/o/XS138715HB/0/3,0,2,,1,False,False,262,,,2房2廳2衛,False,False,宜蘭縣,Yilan-county,8,https://www.sinyi.com.tw/buy/list/Yilan-county/default-desc/8
,XS139568HB,宜蘭市龍潭蛋黃區金店住,24.7785939024,121.741495289,['https://img.hbhousing.com.tw/pictures/A490/A490XS139568a.jpg'],https://img.hbhousing.com.tw/pictures/A490/A490XS139568a.jpg,,,,,0.0,宜蘭縣宜蘭市大坡路二段,49.6年,['E'],['E'],0,1199,43.95,33.28,0,43.95,3衛,1-2,2,False,,[],10,False,False,https://sinyi.in/o/XS139568HB/0/3,0,2,,1,False,False,260,,,3衛,False,False,宜蘭縣,Yilan-county,8,https://www.sinyi.com.tw/buy/list/Yilan-county/default-desc/8
,XS140142HB,宜市漂亮二房華廈C071,24.769573988136,121.75515084161,['https://img.hbhousing.com.tw/pictures/A361/A361XS140142a.jpg'],https://img.hbhousing.com.tw/pictures/A361/A361XS140142a.jpg,,,,,0.0,宜蘭縣宜蘭市XX路一段,32.1年,['M'],['M'],0,680,34.56,3.97,0,21.9,2房2廳2衛,11,12,False,,[],58,False,False,https://sinyi.in/o/XS140142HB/0/3,0,2,,1,False,False,260,,,2房2廳2衛,False,False,宜蘭縣,Yilan-county,8,https://www.sinyi.com.tw/buy/list/Yilan-county/default-desc/8
,XS144545HB,冬山鄉時尚透天厝,24.665665,121.766866,['https://img.hbhousing.com.tw/pictures/A489/A489XS144545a.jpg'],https://img.hbhousing.com.tw/pictures/A489/A489XS144545a.jpg,,,,,0.0,宜蘭縣冬山鄉義成路三段,52.7年,['D'],['D'],0,1200,22.39,24.89,0,22.39,5房2廳4衛,1-2,2,False,,[],6,False,False,https://sinyi.in/o/XS144545HB/0/3,0,2,,1,False,False,269,,,5房2廳4衛,False,False,宜蘭縣,Yilan-county,8,https://www.sinyi.com.tw/buy/list/Yilan-county/default-desc/8
,XS144588HB,義成商圈三角窗大店住,24.6562670225,121.764619358,['https://img.hbhousing.com.tw/pictures/A829/A829XS144588a.jpg'],https://img.hbhousing.com.tw/pictures/A829/A829XS144588a.jpg,,,,,0.0,宜蘭縣冬山鄉義成路三段,47.8年,['E'],['E'],0,1380,78.45,26.97,0,78.45,3衛,1-4,4,False,,[],7,False,False,https://sinyi.in/o/XS144588HB/0/3,0,2,,1,False,False,269,,,3衛,False,False,宜蘭縣,Yilan-county,9,https://www.sinyi.com.tw/buy/list/Yilan-county/default-desc/9
,XS144969HB,宜蘭未來高鐵特定區旁大面寬透天,24.7201177939,121.773343414,['https://img.hbhousing.com.tw/pictures/A829/A829XS144969a.jpg'],https://img.hbhousing.com.tw/pictures/A829/A829XS144969a.jpg,,,,,0.0,宜蘭縣宜蘭市東津二路,33.1年,['D'],['D'],0,1350,54.49,35.64,0,48.72,3房3廳3衛,1-3,3,False,,[],6,False,False,https://sinyi.in/o/XS144969HB/0/3,0,2,,1,False,False,260,,,3房3廳3衛,False,False,宜蘭縣,Yilan-county,9,https://www.sinyi.com.tw/buy/list/Yilan-county/default-desc/9
,XS145188HB,五結近國道大面寬全新四房墅A3,24.6764979,121.8044603,['https://img.hbhousing.com.tw/pictures/A490/A490XS145188a.jpg'],https://img.hbhousing.com.tw/pictures/A490/A490XS145188a.jpg,,,,,0.0,宜蘭縣五結鄉錦草二路,0.2年,['D'],['D'],0,1180,40.83,30.07,0,40.83,4房2廳3衛,1-3,3,False,,[],3,False,False,https://sinyi.in/o/XS145188HB/0/3,0,2,,1,False,False,268,,,4房2廳3衛,False,False,宜蘭縣,Yilan-county,9,https://www.sinyi.com.tw/buy/list/Yilan-county/default-desc/9
,XS145248HB,近冬山河全新可申請民宿電梯農舍,24.6597513854,121.810360603,['https://img.hbhousing.com.tw/pictures/A829/A829XS145248a.jpg'],https://img.hbhousing.com.tw/pictures/A829/A829XS145248a.jpg,,,,,0.0,宜蘭縣冬山鄉寶福路,2.3年,['K'],['K'],0,2790,117.06,571.7,0,106.62,6房2廳7衛,1-3,3,False,,[],2,False,False,https://sinyi.in/o/XS145248HB/0/3,0,2,,1,False,False,269,,,6房2廳7衛,False,False,宜蘭縣,Yilan-county,9,https://www.sinyi.com.tw/buy/list/Yilan-county/default-desc/9
,WS71324HB,鳳凰溫泉頂級裝潢飯店管理,24.8296745744,121.773757946,['https://img.hbhousing.com.tw/pictures/A590/A590WS71324a.jpg'],https://img.hbhousing.com.tw/pictures/A590/A590WS71324a.jpg,,,,,0.0,宜蘭縣礁溪鄉健康一街,15.0年,['M'],['M'],0,1168,23.45,4.37,1,12.84,1房1廳2衛,4,9,True,['6'],[],16,False,False,https://sinyi.in/o/WS71324HB/0/3,0,2,,1,False,False,262,,,1房1廳2衛,False,False,宜蘭縣,Yilan-county,9,https://www.sinyi.com.tw/buy/list/Yilan-county/default-desc/9
,XS130767HB,上將路休閒小豪宅A,24.6827633193,121.693074697,['https://img.hbhousing.com.tw/pictures/A490/A490XS130767a.jpg'],https://img.hbhousing.com.tw/pictures/A490/A490XS130767a.jpg,,,,,0.0,宜蘭縣三星鄉上將路三段,2.6年,['K'],['K'],0,1680,28.67,169.37,0,28.67,3房2廳2衛,1,1,False,,[],13,False,False,https://sinyi.in/o/XS130767HB/0/3,0,2,,1,False,False,266,,,3房2廳2衛,False,False,宜蘭縣,Yilan-county,9,https://www.sinyi.com.tw/buy/list/Yilan-county/default-desc/9
,XS135390HB,蘇澳交流道美透天A006,24.616491465219,121.83630992173,['https://img.hbhousing.com.tw/pictures/A361/A361XS135390a.jpg'],https://img.hbhousing.com.tw/pictures/A361/A361XS135390a.jpg,,,,,0.0,宜蘭縣蘇澳鎮XX路,47.7年,['D'],['D'],0,598,27.5,24.75,0,27.5,2房2廳2衛,1-2,2,False,,[],14,False,False,https://sinyi.in/o/XS135390HB/0/3,0,2,,1,False,False,270,,,2房2廳2衛,False,False,宜蘭縣,Yilan-county,9,https://www.sinyi.com.tw/buy/list/Yilan-county/default-desc/9
,XS136841HB,連大花園新城透天,24.7471481389,121.736137924,['https://img.hbhousing.com.tw/pictures/A715/A715XS136841a.jpg'],https://img.hbhousing.com.tw/pictures/A715/A715XS136841a.jpg,,,,,0.0,宜蘭縣宜蘭市女中路三段,18.2年,['D'],['D'],0,1980,87.59,29.14,1,79.24,6房3廳5衛,-1-4,0,False,,[],63,False,False,https://sinyi.in/o/XS136841HB/0/3,0,2,,1,False,False,260,,,6房3廳5衛,False,False,宜蘭縣,Yilan-county,9,https://www.sinyi.com.tw/buy/list/Yilan-county/default-desc/9
,XS137155HB,湯圍溝礁溪老街四房公寓,24.826523816064,121.77289956253,['https://img.hbhousing.com.tw/pictures/A730/A730XS137155a.jpg'],https://img.hbhousing.com.tw/pictures/A730/A730XS137155a.jpg,,,,,0.0,宜蘭縣礁溪鄉湯圍街,48.6年,['A'],['A'],0,598,20.19,7.56,0,20.19,4房1廳1衛,3,0,False,,[],23,False,False,https://sinyi.in/o/XS137155HB/0/3,0,2,,1,False,False,262,,,4房1廳1衛,False,False,宜蘭縣,Yilan-county,9,https://www.sinyi.com.tw/buy/list/Yilan-county/default-desc/9
,XS137328HB,羅東三房+平面車位,24.6679234886,121.764551285,['https://img.hbhousing.com.tw/pictures/A185/A185XS137328a.jpg'],https://img.hbhousing.com.tw/pictures/A185/A185XS137328a.jpg,,,,,0.0,宜蘭縣羅東鎮南盟路,32.2年,['M'],['M'],0,658,37.72,1315.57,1,25.97,3房2廳2衛,3,5,True,['6'],[],106,False,False,https://sinyi.in/o/XS137328HB/0/3,0,2,,1,False,False,265,,,3房2廳2衛,False,False,宜蘭縣,Yilan-county,9,https://www.sinyi.com.tw/buy/list/Yilan-county/default-desc/9
,XS139263HB,頭城烏石港重劃區方正建地F00,24.859186,121.823673,['https://img.hbhousing.com.tw/pictures/A670/A670XS139263a.jpg'],https://img.hbhousing.com.tw/pictures/A670/A670XS139263a.jpg,,,,,0.0,宜蘭縣頭城鎮烏石港段,--,['I'],['I'],0,5526,0.0,269.58,0,-1.0,,0,0,False,,[],9,False,False,https://sinyi.in/o/XS139263HB/0/3,0,2,,3,False,False,261,,,,False,False,宜蘭縣,Yilan-county,9,https://www.sinyi.com.tw/buy/list/Yilan-county/default-desc/9
,XS139932HB,礁溪火車站兩房,24.8279269823,121.773919326,['https://img.hbhousing.com.tw/pictures/A708/A708XS139932a.jpg'],https://img.hbhousing.com.tw/pictures/A708/A708XS139932a.jpg,,,,,0.0,宜蘭縣礁溪鄉溫泉路,30.2年,['L'],['L'],0,638,22.06,1.84,0,15.56,2房1廳1衛,5,12,True,['6'],[],40,False,False,https://sinyi.in/o/XS139932HB/0/3,0,2,,1,False,False,262,,,2房1廳1衛,False,False,宜蘭縣,Yilan-county,9,https://www.sinyi.com.tw/buy/list/Yilan-county/default-desc/9
,XS141455HB,近轉運站美透天,24.7595900303,121.764811218,['https://img.hbhousing.com.tw/pictures/A471/A471XS141455a.jpg'],https://img.hbhousing.com.tw/pictures/A471/A471XS141455a.jpg,,,,,0.0,宜蘭縣宜蘭市慈安路,48.1年,['D'],['D'],0,799,25.16,19.97,0,25.16,3房3廳2衛,1-2,0,False,,[],121,False,False,https://sinyi.in/o/XS141455HB/0/3,0,2,,1,False,False,260,,,3房3廳2衛,False,False,宜蘭縣,Yilan-county,9,https://www.sinyi.com.tw/buy/list/Yilan-county/default-desc/9
,XS142036HB,羽松全新四套房車庫別墅B,24.7136281479,121.716510319,['https://img.hbhousing.com.tw/pictures/A471/A471XS142036a.jpg'],https://img.hbhousing.com.tw/pictures/A471/A471XS142036a.jpg,,,,,0.0,宜蘭縣員山鄉深洲路,0.9年,['D'],['D'],0,1170,46.04,25.06,1,46.04,4房2廳5衛,1-3,0,False,,[],18,False,False,https://sinyi.in/o/XS142036HB/0/3,0,2,,1,False,False,264,,,4房2廳5衛,False,False,宜蘭縣,Yilan-county,9,https://www.sinyi.com.tw/buy/list/Yilan-county/default-desc/9
,XS142067HB,壯圍近沙丘生態園建地F001,24.746783,121.785521,['https://img.hbhousing.com.tw/pictures/A670/A670XS142067a.jpg'],https://img.hbhousing.com.tw/pictures/A670/A670XS142067a.jpg,,,,,0.0,宜蘭縣壯圍鄉壯濱一段,--,['I'],['I'],0,839,0.0,123.52,0,-1.0,,0,0,False,,[],10,False,False,https://sinyi.in/o/XS142067HB/0/3,0,2,,3,False,False,263,,,,False,False,宜蘭縣,Yilan-county,9,https://www.sinyi.com.tw/buy/list/Yilan-county/default-desc/9
,XS143012HB,近宜市交流道全新美裝華廈,24.7736633651,121.774179118,['https://img.hbhousing.com.tw/pictures/A471/A471XS143012a.jpg'],https://img.hbhousing.com.tw/pictures/A471/A471XS143012a.jpg,,,,,0.0,宜蘭縣壯圍鄉大福路三段,0.6年,['M'],['M'],0,880,25.37,32.97,1,17.79,2房2廳1衛,2,0,False,,[],25,False,False,https://sinyi.in/o/XS143012HB/0/3,0,2,,1,False,False,263,,,2房2廳1衛,False,False,宜蘭縣,Yilan-county,9,https://www.sinyi.com.tw/buy/list/Yilan-county/default-desc/9
,XS143177HB,壯志742農地,24.777300610386,121.8018001485,['https://img.hbhousing.com.tw/pictures/A708/A708XS143177a.jpg'],https://img.hbhousing.com.tw/pictures/A708/A708XS143177a.jpg,,,,,0.0,宜蘭縣壯圍鄉壯志段,--,['I'],['I'],0,588,0.0,742.94,0,-1.0,,0,0,False,,[],0,False,False,https://sinyi.in/o/XS143177HB/0/3,0,2,,3,False,False,263,,,,False,False,宜蘭縣,Yilan-county,9,https://www.sinyi.com.tw/buy/list/Yilan-county/default-desc/9
,XS143904HB,礁溪二龍淇武蘭足坪農地,24.809310625575,121.78648749158,['https://img.hbhousing.com.tw/pictures/A730/A730XS143904a.jpg'],https://img.hbhousing.com.tw/pictures/A730/A730XS143904a.jpg,,,,,0.0,宜蘭縣礁溪鄉協民段,--,['I'],['I'],0,3480,0.0,1324.95,0,-1.0,,0,0,False,,[],1,False,False,https://sinyi.in/o/XS143904HB/0/3,0,2,,3,False,False,262,,,,False,False,宜蘭縣,Yilan-county,9,https://www.sinyi.com.tw/buy/list/Yilan-county/default-desc/9
,XS144496HB,羅東近文化二館全新裝潢邊間透天,24.6682693209,121.760004472,['https://img.hbhousing.com.tw/pictures/A829/A829XS144496a.jpg'],https://img.hbhousing.com.tw/pictures/A829/A829XS144496a.jpg,,,,,0.0,宜蘭縣羅東鎮西安街,48.3年,['D'],['D'],0,768,31.91,23.28,0,31.91,2房2廳2衛,1-2,2,False,,[],35,False,False,https://sinyi.in/o/XS144496HB/0/3,0,2,,1,False,False,265,,,2房2廳2衛,False,False,宜蘭縣,Yilan-county,9,https://www.sinyi.com.tw/buy/list/Yilan-county/default-desc/9
,XS144828HB,礁溪現代風溫馨六套房溫泉別墅,24.822668091407,121.77068269852,['https://img.hbhousing.com.tw/pictures/A776/A776XS144828a.jpg'],https://img.hbhousing.com.tw/pictures/A776/A776XS144828a.jpg,,,,,0.0,宜蘭縣礁溪鄉奇立丹路,44.4年,['D'],['D'],0,3280,100.17,62.18,1,100.17,6房8廳7衛,1-3,0,False,,[],0,False,False,https://sinyi.in/o/XS144828HB/0/3,0,2,,1,False,False,262,,,6房8廳7衛,False,False,宜蘭縣,Yilan-county,9,https://www.sinyi.com.tw/buy/list/Yilan-county/default-desc/9
,XS145275HB,五結市區都計內未來重劃增值農地,24.682232980994,121.79957090146,['https://img.hbhousing.com.tw/pictures/A829/A829XS145275a.jpg'],https://img.hbhousing.com.tw/pictures/A829/A829XS145275a.jpg,,,,,0.0,宜蘭縣五結鄉五結段,--,['I'],['I'],0,941,0.0,376.46,0,-1.0,,0,0,False,,[],1,False,False,https://sinyi.in/o/XS145275HB/0/3,0,2,,3,False,False,268,,,,False,False,宜蘭縣,Yilan-county,10,https://www.sinyi.com.tw/buy/list/Yilan-county/default-desc/10
,XS145425HB,三星阿里史附資材室山坡地,24.644797065,121.686753982,['https://img.hbhousing.com.tw/pictures/A829/A829XS145425a.jpg'],https://img.hbhousing.com.tw/pictures/A829/A829XS145425a.jpg,,,,,0.0,宜蘭縣三星鄉玉尊路,--,['I'],['I'],0,588,0.0,500.03,0,-1.0,,0,0,False,,[],0,False,False,https://sinyi.in/o/XS145425HB/0/3,0,2,,3,False,False,266,,,,False,False,宜蘭縣,Yilan-county,10,https://www.sinyi.com.tw/buy/list/Yilan-county/default-desc/10
,KS193013HB,羅東成功國小旁5房平車,24.668011057,121.770426315,['https://img.hbhousing.com.tw/pictures/D460/D460KS193013a.jpg'],https://img.hbhousing.com.tw/pictures/D460/D460KS193013a.jpg,,,,,0.0,宜蘭縣冬山鄉義成路三段,33.5年,['M'],['M'],0,599,44.57,11.64,1,32.17,5房3衛,5,6,True,['6'],[],34,False,False,https://sinyi.in/o/KS193013HB/0/3,0,2,,1,False,False,269,,,5房3衛,False,False,宜蘭縣,Yilan-county,10,https://www.sinyi.com.tw/buy/list/Yilan-county/default-desc/10
,WS23361HB,文化二館鑽石店面,24.672879290143,121.76411636651,['https://img.hbhousing.com.tw/pictures/A369/A369WS23361a.jpg'],https://img.hbhousing.com.tw/pictures/A369/A369WS23361a.jpg,,,,,0.0,宜蘭縣羅東鎮南門路,18.4年,['E'],['E'],0,3980,93.0,47.19,0,81.42,4房3廳3衛,1-3,3,False,,[],3,False,False,https://sinyi.in/o/WS23361HB/0/3,0,2,,1,False,False,265,,,4房3廳3衛,False,False,宜蘭縣,Yilan-county,10,https://www.sinyi.com.tw/buy/list/Yilan-county/default-desc/10
,WS39537HB,員山農糧度假屋,24.7084899467,121.703830606,['https://img.hbhousing.com.tw/pictures/A471/A471WS39537a.jpg'],https://img.hbhousing.com.tw/pictures/A471/A471WS39537a.jpg,,,,,0.0,宜蘭縣員山鄉深洲一路,2.3年,['K'],['K'],0,1580,21.37,455.33,0,21.37,2房2廳2衛,1,0,False,,[],8,False,False,https://sinyi.in/o/WS39537HB/0/3,0,2,,1,False,False,264,,,2房2廳2衛,False,False,宜蘭縣,Yilan-county,10,https://www.sinyi.com.tw/buy/list/Yilan-county/default-desc/10
,XB09131GH,獨家-礁溪市區住宅農建地,24.823489,121.771106,['https://img.great-home.com.tw/pictures/H181/H181XB09131a.jpg'],https://img.great-home.com.tw/pictures/H181/H181XB09131a.jpg,,,,,0.0,宜蘭縣礁溪鄉忠義段,--,['I'],['I'],0,10396,0.0,519.67,0,-1.0,,0,0,False,,[],3,False,False,https://sinyi.in/o/XB09131GH/0/3,0,2,,3,False,False,262,,,,False,False,宜蘭縣,Yilan-county,10,https://www.sinyi.com.tw/buy/list/Yilan-county/default-desc/10
,XB09410GH,義成稀有百坪電梯大農舍,24.64134,121.76596,['https://img.great-home.com.tw/pictures/H181/H181XB09410a.jpg'],https://img.great-home.com.tw/pictures/H181/H181XB09410a.jpg,,,,,0.0,宜蘭縣冬山鄉宜蘭縣,0.8年,['K'],['K'],0,2598,101.4,364.93,1,101.4,7房2廳7衛,1-3,0,False,,[],9,False,False,https://sinyi.in/o/XB09410GH/0/3,0,2,,1,False,False,269,,,7房2廳7衛,False,False,宜蘭縣,Yilan-county,10,https://www.sinyi.com.tw/buy/list/Yilan-county/default-desc/10
,XB09480GH,礁溪國道旁足坪農地,24.823489,121.771106,['https://img.great-home.com.tw/pictures/H181/H181XB09480a.jpg'],https://img.great-home.com.tw/pictures/H181/H181XB09480a.jpg,,,,,0.0,宜蘭縣礁溪鄉實踐一段,--,['I'],['I'],0,1828,0.0,760.06,0,-1.0,,0,0,False,,[],1,False,False,https://sinyi.in/o/XB09480GH/0/3,0,2,,3,False,False,262,,,,False,False,宜蘭縣,Yilan-county,10,https://www.sinyi.com.tw/buy/list/Yilan-county/default-desc/10
,XS138122HB,北成4套房全新電梯車庫宅,24.6776732028,121.757494993,['https://img.hbhousing.com.tw/pictures/A490/A490XS138122a.jpg'],https://img.hbhousing.com.tw/pictures/A490/A490XS138122a.jpg,,,,,0.0,宜蘭縣羅東鎮光明街,2.1年,['D'],['D'],0,2290,64.71,28.28,0,60.98,4房2廳5衛,1-4,4,False,,[],47,False,False,https://sinyi.in/o/XS138122HB/0/3,0,2,,1,False,False,265,,,4房2廳5衛,False,False,宜蘭縣,Yilan-county,10,https://www.sinyi.com.tw/buy/list/Yilan-county/default-desc/10
,XS138545HB,宜蘭市道路用地F040,24.747429881719,121.7588632775,['https://img.hbhousing.com.tw/pictures/A361/A361XS138545a.jpg'],https://img.hbhousing.com.tw/pictures/A361/A361XS138545a.jpg,,,,,0.0,宜蘭縣宜蘭市XX路,--,['I'],['I'],0,1575,0.0,117.1,0,-1.0,,0,0,False,,[],7,False,False,https://sinyi.in/o/XS138545HB/0/3,0,2,,3,False,False,260,,,,False,False,宜蘭縣,Yilan-county,10,https://www.sinyi.com.tw/buy/list/Yilan-county/default-desc/10
,XS138748HB,百亨優閣10馬賽全新別墅A6,24.6205071,121.8388152,['https://img.hbhousing.com.tw/pictures/A490/A490XS138748a.jpg'],https://img.hbhousing.com.tw/pictures/A490/A490XS138748a.jpg,,,,,0.0,宜蘭縣蘇澳鎮思村路,0.9年,['D'],['D'],0,1098,48.0,24.94,0,48.0,4房2廳5衛,1-4,4,False,,[],19,False,False,https://sinyi.in/o/XS138748HB/0/3,0,2,,1,False,False,270,,,4房2廳5衛,False,False,宜蘭縣,Yilan-county,10,https://www.sinyi.com.tw/buy/list/Yilan-county/default-desc/10
,XS139426HB,三星大地坪合法獨棟別墅,24.66715139077,121.69860423933,['https://img.hbhousing.com.tw/pictures/A636/A636XS139426a.jpg'],https://img.hbhousing.com.tw/pictures/A636/A636XS139426a.jpg,,,,,0.0,宜蘭縣三星鄉三星路二段,15.9年,['D'],['D'],0,1850,73.74,89.82,1,71.03,6房3廳2衛,1-2,0,False,,[],37,False,False,https://sinyi.in/o/XS139426HB/0/3,0,2,,1,False,False,266,,,6房3廳2衛,False,False,宜蘭縣,Yilan-county,10,https://www.sinyi.com.tw/buy/list/Yilan-county/default-desc/10
,XS141362HB,馬賽低總價綠能收租宅,24.6162082117,121.836169267,['https://img.hbhousing.com.tw/pictures/A490/A490XS141362a.jpg'],https://img.hbhousing.com.tw/pictures/A490/A490XS141362a.jpg,,,,,0.0,宜蘭縣蘇澳鎮永愛路,47.7年,['D'],['D'],0,598,27.52,24.75,0,27.52,4房2廳2衛,1-2,2,False,,[],28,False,False,https://sinyi.in/o/XS141362HB/0/3,0,2,,1,False,False,270,,,4房2廳2衛,False,False,宜蘭縣,Yilan-county,10,https://www.sinyi.com.tw/buy/list/Yilan-county/default-desc/10
,XS141983HB,海景度假宅專屬車位 黃金海灣,24.8546128713,121.830673185,['https://img.hbhousing.com.tw/pictures/A708/A708XS141983a.jpg'],https://img.hbhousing.com.tw/pictures/A708/A708XS141983a.jpg,,,,,0.0,宜蘭縣頭城鎮大坑路,10.1年,['C'],['C'],0,886,33.79,7.61,1,13.55,1房1廳1衛,13,17,True,['2'],[],18,False,False,https://sinyi.in/o/XS141983HB/0/3,0,2,,1,False,False,261,,,1房1廳1衛,False,False,宜蘭縣,Yilan-county,10,https://www.sinyi.com.tw/buy/list/Yilan-county/default-desc/10
,XS142148HB,礁溪白玉前後雙面路農地,24.834452429819,121.78700442214,['https://img.hbhousing.com.tw/pictures/A730/A730XS142148a.jpg'],https://img.hbhousing.com.tw/pictures/A730/A730XS142148a.jpg,,,,,0.0,宜蘭縣礁溪鄉白玉段,--,['I'],['I'],0,1160,0.0,526.96,0,-1.0,,0,0,False,,[],7,False,False,https://sinyi.in/o/XS142148HB/0/3,0,2,,3,False,False,262,,,,False,False,宜蘭縣,Yilan-county,10,https://www.sinyi.com.tw/buy/list/Yilan-county/default-desc/10
,XS142247HB,員山獨棟花園別墅,24.7586463699,121.715210981,['https://img.hbhousing.com.tw/pictures/A490/A490XS142247a.jpg'],https://img.hbhousing.com.tw/pictures/A490/A490XS142247a.jpg,,,,,0.0,宜蘭縣員山鄉永廣路,36.4年,['D'],['D'],0,1680,58.98,74.17,0,55.81,5房3廳2衛,1-2,2,False,,[],50,False,False,https://sinyi.in/o/XS142247HB/0/3,0,2,,1,False,False,264,,,5房3廳2衛,False,False,宜蘭縣,Yilan-county,10,https://www.sinyi.com.tw/buy/list/Yilan-county/default-desc/10
,XS142879HB,羅東國中旁倉前寶雅彈性空間,24.6812666175,121.768916726,['https://img.hbhousing.com.tw/pictures/A490/A490XS142879a.jpg'],https://img.hbhousing.com.tw/pictures/A490/A490XS142879a.jpg,,,,,0.0,宜蘭縣羅東鎮倉前路,33.4年,['M'],['M'],0,1680,64.15,10.46,0,47.83,3房4廳2衛,5,7,False,,[],9,False,False,https://sinyi.in/o/XS142879HB/0/3,0,2,,1,False,False,265,,,3房4廳2衛,False,False,宜蘭縣,Yilan-county,10,https://www.sinyi.com.tw/buy/list/Yilan-county/default-desc/10
,XS142886HB,宜商旁透天別墅A023,24.753952198113,121.76849814587,['https://img.hbhousing.com.tw/pictures/A669/A669XS142886a.jpg'],https://img.hbhousing.com.tw/pictures/A669/A669XS142886a.jpg,,,,,0.0,宜蘭縣宜蘭市XX路,26.2年,['D'],['D'],0,1380,54.46,29.0,0,48.46,4房2廳3衛,1-4,4,True,['6'],[],103,False,False,https://sinyi.in/o/XS142886HB/0/3,0,2,,1,False,False,260,,,4房2廳3衛,False,False,宜蘭縣,Yilan-county,10,https://www.sinyi.com.tw/buy/list/Yilan-county/default-desc/10
,XS143105HB,羽松全新四套房車庫別墅A7,24.7136281479,121.716510319,['https://img.hbhousing.com.tw/pictures/A490/A490XS143105a.jpg'],https://img.hbhousing.com.tw/pictures/A490/A490XS143105a.jpg,,,,,0.0,宜蘭縣員山鄉深洲路,0.9年,['D'],['D'],0,1200,46.03,25.06,0,43.24,4房2廳5衛,1-3,3,False,,[],15,False,False,https://sinyi.in/o/XS143105HB/0/3,0,2,,1,False,False,264,,,4房2廳5衛,False,False,宜蘭縣,Yilan-county,10,https://www.sinyi.com.tw/buy/list/Yilan-county/default-desc/10
,XS143900HB,礁溪現代全新4套房農舍,24.80655698441,121.80793666278,['https://img.hbhousing.com.tw/pictures/A592/A592XS143900a.jpg'],https://img.hbhousing.com.tw/pictures/A592/A592XS143900a.jpg,,,,,0.0,宜蘭縣礁溪鄉塭底路,0.2年,['K'],['K'],0,2780,93.14,472.81,1,93.14,4房3廳5衛,1-3,3,False,,[],11,False,False,https://sinyi.in/o/XS143900HB/0/3,0,2,,1,False,False,262,,,4房3廳5衛,False,False,宜蘭縣,Yilan-county,10,https://www.sinyi.com.tw/buy/list/Yilan-county/default-desc/10
,XS144295HB,豐年．大面寬築夢建地,24.681943859172,121.7587447448,['https://img.hbhousing.com.tw/pictures/A829/A829XS144295a.jpg'],https://img.hbhousing.com.tw/pictures/A829/A829XS144295a.jpg,,,,,0.0,宜蘭縣羅東鎮公正段,--,['I'],['I'],0,1580,0.0,39.33,0,-1.0,,0,0,False,,[],2,False,False,https://sinyi.in/o/XS144295HB/0/3,0,2,,3,False,False,265,,,,False,False,宜蘭縣,Yilan-county,11,https://www.sinyi.com.tw/buy/list/Yilan-county/default-desc/11
,XS145463HB,員山5大套房農舍D017,24.7266428094,121.728868622,['https://img.hbhousing.com.tw/pictures/A670/A670XS145463a.jpg'],https://img.hbhousing.com.tw/pictures/A670/A670XS145463a.jpg,,,,,0.0,宜蘭縣員山鄉賢德路二段,0.9年,['K'],['K'],0,3280,94.06,351.69,0,86.59,5房3廳6衛,1-3,3,False,,[],0,False,False,https://sinyi.in/o/XS145463HB/0/3,0,2,,1,False,False,264,,,5房3廳6衛,False,False,宜蘭縣,Yilan-county,11,https://www.sinyi.com.tw/buy/list/Yilan-county/default-desc/11
,XS89486HB,頭城烏石港雙面路商業建地,24.87055451937,121.83694798282,['https://img.hbhousing.com.tw/pictures/A636/A636XS89486a.jpg'],https://img.hbhousing.com.tw/pictures/A636/A636XS89486a.jpg,,,,,0.0,宜蘭縣頭城鎮港口路,--,['I'],['I'],0,2670,0.0,59.25,0,-1.0,,0,0,False,,[],4,False,False,https://sinyi.in/o/XS89486HB/0/3,0,2,,3,False,False,261,,,,False,False,宜蘭縣,Yilan-county,11,https://www.sinyi.com.tw/buy/list/Yilan-county/default-desc/11
,YS196139HB,近羅東市區三面路農地,24.702702056642,121.74914124402,['https://img.hbhousing.com.tw/pictures/A684/A684YS196139a.jpg'],https://img.hbhousing.com.tw/pictures/A684/A684YS196139a.jpg,,,,,0.0,宜蘭縣三星鄉新日興段,--,['I'],['I'],0,2511,0.0,1115.94,0,-1.0,,1,0,False,,[],3,False,False,https://sinyi.in/o/YS196139HB/0/3,0,2,,3,False,False,266,,,,False,False,宜蘭縣,Yilan-county,11,https://www.sinyi.com.tw/buy/list/Yilan-county/default-desc/11
,CS170094HB,宜蘭高鐵重劃區徵收農地,24.741012,121.7642833,['https://img.hbhousing.com.tw/pictures/B355/B355CS170094a.jpg'],https://img.hbhousing.com.tw/pictures/B355/B355CS170094a.jpg,,,,,0.0,宜蘭縣宜蘭市振興三段,--,['I'],['I'],0,8246,0.0,659.09,0,-1.0,,0,0,False,,[],6,False,False,https://sinyi.in/o/CS170094HB/0/3,0,2,,3,False,False,260,,,,False,False,宜蘭縣,Yilan-county,11,https://www.sinyi.com.tw/buy/list/Yilan-county/default-desc/11
,GS114510HB,宜蘭市慈航路535農地2,24.77213,121.73605,['https://img.hbhousing.com.tw/pictures/D330/D330GS114510a.jpg'],https://img.hbhousing.com.tw/pictures/D330/D330GS114510a.jpg,,,,,0.0,宜蘭縣宜蘭市梅洲段,--,['I'],['I'],0,1608,0.0,535.73,0,-1.0,,0,0,False,,[],12,False,False,https://sinyi.in/o/GS114510HB/0/3,0,2,,3,False,False,260,,,,False,False,宜蘭縣,Yilan-county,11,https://www.sinyi.com.tw/buy/list/Yilan-county/default-desc/11
,WB00883GH,頭城多車位可民宿電梯別墅,24.8652252136,121.830964359,['https://img.great-home.com.tw/pictures/H181/H181WB00883a.jpg'],https://img.great-home.com.tw/pictures/H181/H181WB00883a.jpg,,,,,0.0,宜蘭縣頭城鎮環鎮東路二段,12.2年,['D'],['D'],0,2580,94.96,53.28,1,94.96,5房2廳6衛,1-5,5,True,['6'],[],7,False,False,https://sinyi.in/o/WB00883GH/0/3,0,2,,1,False,False,261,,,5房2廳6衛,False,False,宜蘭縣,Yilan-county,11,https://www.sinyi.com.tw/buy/list/Yilan-county/default-desc/11
,WS14571HB,冬山河海景別墅,24.6912127832,121.834305864,['https://img.hbhousing.com.tw/pictures/A518/A518WS14571a.jpg'],https://img.hbhousing.com.tw/pictures/A518/A518WS14571a.jpg,,,,,0.0,宜蘭縣五結鄉季水路,3.2年,['D'],['D'],0,5600,217.65,80.37,0,200.14,9房2廳10衛,1-4,4,True,['6'],[],18,False,False,https://sinyi.in/o/WS14571HB/0/3,0,2,,1,False,False,268,,,9房2廳10衛,False,False,宜蘭縣,Yilan-county,11,https://www.sinyi.com.tw/buy/list/Yilan-county/default-desc/11
,WS23919HB,藍灣無敵海景套房,24.8577273921,121.832139653,['https://img.hbhousing.com.tw/pictures/A536/A536WS23919a.jpg'],https://img.hbhousing.com.tw/pictures/A536/A536WS23919a.jpg,,,,,0.0,宜蘭縣頭城鎮協天路,18.4年,['M'],['M'],0,568,18.63,3.82,0,11.67,1房1廳1衛,5,9,False,,[],31,False,False,https://sinyi.in/o/WS23919HB/0/3,0,2,,1,False,False,261,,,1房1廳1衛,False,False,宜蘭縣,Yilan-county,11,https://www.sinyi.com.tw/buy/list/Yilan-county/default-desc/11
,WS28901HB,深洲大面寬老農地E072,24.712672,121.711693,['https://img.hbhousing.com.tw/pictures/A669/A669WS28901a.jpg'],https://img.hbhousing.com.tw/pictures/A669/A669WS28901a.jpg,,,,,0.0,宜蘭縣員山鄉XX路,--,['I'],['I'],0,1645,0.0,514.3,0,-1.0,,0,0,False,,[],4,False,False,https://sinyi.in/o/WS28901HB/0/3,0,2,,3,False,False,264,,,,False,False,宜蘭縣,Yilan-county,11,https://www.sinyi.com.tw/buy/list/Yilan-county/default-desc/11
,WS39305HB,蘇澳雙面路甲種工業地,24.594453,121.842814,['https://img.hbhousing.com.tw/pictures/A752/A752WS39305a.jpg'],https://img.hbhousing.com.tw/pictures/A752/A752WS39305a.jpg,,,,,0.0,宜蘭縣蘇澳鎮湖口段,--,['I'],['I'],0,7777,0.0,1329.44,0,-1.0,,0,0,False,,[],4,False,False,https://sinyi.in/o/WS39305HB/0/3,0,2,,3,False,False,270,,,,False,False,宜蘭縣,Yilan-county,11,https://www.sinyi.com.tw/buy/list/Yilan-county/default-desc/11
,WS77595HB,宜蘭休閒庭園農舍,24.7574568845,121.785403617,['https://img.hbhousing.com.tw/pictures/A325/A325WS77595a.jpg'],https://img.hbhousing.com.tw/pictures/A325/A325WS77595a.jpg,,,,,0.0,宜蘭縣宜蘭市七張路,21.6年,['K'],['K'],0,4988,159.62,458.89,1,148.24,12房1廳11衛,1-3,3,False,,[],6,False,False,https://sinyi.in/o/WS77595HB/0/3,0,2,,1,False,False,260,,,12房1廳11衛,False,False,宜蘭縣,Yilan-county,11,https://www.sinyi.com.tw/buy/list/Yilan-county/default-desc/11
,XS130981HB,冬山鄉梅山段甲建＋農業地,24.635222,121.792444,['https://img.hbhousing.com.tw/pictures/A752/A752XS130981a.jpg'],https://img.hbhousing.com.tw/pictures/A752/A752XS130981a.jpg,,,,,0.0,宜蘭縣冬山鄉梅山段,--,['I'],['I'],0,4087,0.0,5629.66,0,-1.0,,0,0,False,,[],7,False,False,https://sinyi.in/o/XS130981HB/0/3,0,2,,3,False,False,269,,,,False,False,宜蘭縣,Yilan-county,11,https://www.sinyi.com.tw/buy/list/Yilan-county/default-desc/11
,XS133795HB,10套房庭園泳池渡假村,24.6834075985,121.697378672,['https://img.hbhousing.com.tw/pictures/A490/A490XS133795a.jpg'],https://img.hbhousing.com.tw/pictures/A490/A490XS133795a.jpg,,,,,0.0,宜蘭縣三星鄉五分路,16.7年,['K'],['K'],0,2800,97.99,457.39,0,97.99,10房2廳12衛,1-3,3,False,,[],16,False,False,https://sinyi.in/o/XS133795HB/0/3,0,2,,1,False,False,266,,,10房2廳12衛,False,False,宜蘭縣,Yilan-county,11,https://www.sinyi.com.tw/buy/list/Yilan-county/default-desc/11
,XS135183HB,礁溪市區文武百市溫泉精華店面,24.8260851739,121.770427324,['https://img.hbhousing.com.tw/pictures/A776/A776XS135183a.jpg'],https://img.hbhousing.com.tw/pictures/A776/A776XS135183a.jpg,,,,,0.0,宜蘭縣礁溪鄉信義路,54.4年,['E'],['E'],0,1980,29.55,21.78,0,29.55,3房3廳3衛,1-2,0,False,,[],8,False,False,https://sinyi.in/o/XS135183HB/0/3,0,2,,1,False,False,262,,,3房3廳3衛,False,False,宜蘭縣,Yilan-county,11,https://www.sinyi.com.tw/buy/list/Yilan-county/default-desc/11
,XS135345HB,礁溪湯宸景觀湯屋,24.8297557109,121.769968358,['https://img.hbhousing.com.tw/pictures/A708/A708XS135345a.jpg'],https://img.hbhousing.com.tw/pictures/A708/A708XS135345a.jpg,,,,,0.0,宜蘭縣礁溪鄉德陽路,19.6年,['C'],['C'],0,568,15.96,4.03,1,8.54,1房1廳1衛,9,11,False,,[],33,False,False,https://sinyi.in/o/XS135345HB/0/3,0,2,,1,False,False,262,,,1房1廳1衛,False,False,宜蘭縣,Yilan-county,11,https://www.sinyi.com.tw/buy/list/Yilan-county/default-desc/11
,XS137837HB,冬山河畔左岸農舍,24.63544,121.783291,['https://img.hbhousing.com.tw/pictures/A490/A490XS137837a.jpg'],https://img.hbhousing.com.tw/pictures/A490/A490XS137837a.jpg,,,,,0.0,宜蘭縣冬山鄉義成路一段,6.0年,['K'],['K'],0,4380,123.28,759.64,0,111.58,5房3廳6衛,1-3,3,False,,[],6,False,False,https://sinyi.in/o/XS137837HB/0/3,0,2,,1,False,False,269,,,5房3廳6衛,False,False,宜蘭縣,Yilan-county,11,https://www.sinyi.com.tw/buy/list/Yilan-county/default-desc/11
,XS138410HB,羅東夜市商圈收租投資宅,24.6752590645,121.772962201,['https://img.hbhousing.com.tw/pictures/A490/A490XS138410a.jpg'],https://img.hbhousing.com.tw/pictures/A490/A490XS138410a.jpg,,,,,0.0,宜蘭縣羅東鎮安平路,8.7年,['D'],['D'],0,1698,53.08,32.62,0,48.93,4房2廳5衛,1-3,3,False,,[],28,False,False,https://sinyi.in/o/XS138410HB/0/3,0,2,,1,False,False,265,,,4房2廳5衛,False,False,宜蘭縣,Yilan-county,11,https://www.sinyi.com.tw/buy/list/Yilan-county/default-desc/11
,XS138749HB,百亨優閣10馬賽全新別墅A7,24.6205071,121.8388152,['https://img.hbhousing.com.tw/pictures/A490/A490XS138749a.jpg'],https://img.hbhousing.com.tw/pictures/A490/A490XS138749a.jpg,,,,,0.0,宜蘭縣蘇澳鎮思村路,0.9年,['D'],['D'],0,1098,48.0,24.97,0,48.0,4房2廳5衛,1-4,4,False,,[],12,False,False,https://sinyi.in/o/XS138749HB/0/3,0,2,,1,False,False,270,,,4房2廳5衛,False,False,宜蘭縣,Yilan-county,11,https://www.sinyi.com.tw/buy/list/Yilan-county/default-desc/11
,XS141541HB,礁溪溫泉電梯宅｜喜拉朵旁,24.8208251088,121.76759006,['https://img.hbhousing.com.tw/pictures/A636/A636XS141541a.jpg'],https://img.hbhousing.com.tw/pictures/A636/A636XS141541a.jpg,,,,,0.0,宜蘭縣礁溪鄉化龍街,28.8年,['M'],['M'],0,350,15.7,3.15,1,9.68,1房1廳1衛,5,6,False,,[],9,False,False,https://sinyi.in/o/XS141541HB/0/3,0,2,,1,False,False,262,,,1房1廳1衛,False,False,宜蘭縣,Yilan-county,11,https://www.sinyi.com.tw/buy/list/Yilan-county/default-desc/11
,XS142320HB,員山大面寬老農地E030,24.743432,121.723039,['https://img.hbhousing.com.tw/pictures/A670/A670XS142320a.jpg'],https://img.hbhousing.com.tw/pictures/A670/A670XS142320a.jpg,,,,,0.0,宜蘭縣員山鄉枕山一段,--,['I'],['I'],0,1949,0.0,544.55,0,-1.0,,0,0,False,,[],1,False,False,https://sinyi.in/o/XS142320HB/0/3,0,2,,3,False,False,264,,,,False,False,宜蘭縣,Yilan-county,12,https://www.sinyi.com.tw/buy/list/Yilan-county/default-desc/12
,XS142381HB,員山市區旁低總價超值邊間透天,24.74885,121.71449,['https://img.hbhousing.com.tw/pictures/A715/A715XS142381a.jpg'],https://img.hbhousing.com.tw/pictures/A715/A715XS142381a.jpg,,,,,0.0,宜蘭縣員山鄉溫泉路,33.2年,['D'],['D'],0,880,53.55,26.42,1,52.83,5房3廳4衛,1-4,4,False,,[],31,False,False,https://sinyi.in/o/XS142381HB/0/3,0,2,,1,False,False,264,,,5房3廳4衛,False,False,宜蘭縣,Yilan-county,12,https://www.sinyi.com.tw/buy/list/Yilan-county/default-desc/12
,XS142689HB,羅東溫馨3房車位宅,24.6714927183,121.796536461,['https://img.hbhousing.com.tw/pictures/A490/A490XS142689a.jpg'],https://img.hbhousing.com.tw/pictures/A490/A490XS142689a.jpg,,,,,0.0,宜蘭縣羅東鎮中山路一段,30.3年,['M'],['M'],0,888,33.56,6.87,0,18.12,3房2廳2衛,1,9,True,['2'],[],56,False,False,https://sinyi.in/o/XS142689HB/0/3,0,2,,1,False,False,265,,,3房2廳2衛,False,False,宜蘭縣,Yilan-county,12,https://www.sinyi.com.tw/buy/list/Yilan-county/default-desc/12
,XS142866HB,礁溪湯本源挑高三房華廈,24.8309189153,121.775812596,['https://img.hbhousing.com.tw/pictures/A708/A708XS142866a.jpg'],https://img.hbhousing.com.tw/pictures/A708/A708XS142866a.jpg,,,,,0.0,宜蘭縣礁溪鄉健康路,11.3年,['L'],['L'],0,1580,31.09,5.92,1,17.19,3房2廳2衛,6,12,False,,[],9,False,False,https://sinyi.in/o/XS142866HB/0/3,0,2,,1,False,False,262,,,3房2廳2衛,False,False,宜蘭縣,Yilan-county,12,https://www.sinyi.com.tw/buy/list/Yilan-county/default-desc/12
,XS143878HB,才子佳人大美廈,24.6792005813,121.756332813,['https://img.hbhousing.com.tw/pictures/A369/A369XS143878a.jpg'],https://img.hbhousing.com.tw/pictures/A369/A369XS143878a.jpg,,,,,0.0,宜蘭縣羅東鎮公正路,30.7年,['L'],['L'],0,1988,85.23,8.32,0,51.05,2衛,2,12,True,['6'],[],19,False,False,https://sinyi.in/o/XS143878HB/0/3,0,2,,1,False,False,265,,,2衛,False,False,宜蘭縣,Yilan-county,12,https://www.sinyi.com.tw/buy/list/Yilan-county/default-desc/12
,XS144570HB,安農溪泛舟起點大坪數休閒區農舍,24.6513457659,121.631273792,['https://img.hbhousing.com.tw/pictures/A829/A829XS144570a.jpg'],https://img.hbhousing.com.tw/pictures/A829/A829XS144570a.jpg,,,,,0.0,宜蘭縣三星鄉下湖路,32.9年,['K'],['K'],0,2200,15.87,2987.56,0,15.87,5房3廳3衛,1,1,False,,[],8,False,False,https://sinyi.in/o/XS144570HB/0/3,0,2,,1,False,False,266,,,5房3廳3衛,False,False,宜蘭縣,Yilan-county,12,https://www.sinyi.com.tw/buy/list/Yilan-county/default-desc/12
,XS144916HB,近國五高鐵輕時尚農舍,24.7256065651,121.795222501,['https://img.hbhousing.com.tw/pictures/A490/A490XS144916a.jpg'],https://img.hbhousing.com.tw/pictures/A490/A490XS144916a.jpg,,,,,0.0,宜蘭縣壯圍鄉中興一路,1.5年,['K'],['K'],0,2580,76.26,526.05,0,70.05,4房2廳5衛,1-3,3,False,,[],2,False,False,https://sinyi.in/o/XS144916HB/0/3,0,2,,1,False,False,263,,,4房2廳5衛,False,False,宜蘭縣,Yilan-county,12,https://www.sinyi.com.tw/buy/list/Yilan-county/default-desc/12
,XS144990HB,礁溪星丞心C3,24.7875874283,121.785551806,['https://img.hbhousing.com.tw/pictures/A490/A490XS144990a.jpg'],https://img.hbhousing.com.tw/pictures/A490/A490XS144990a.jpg,,,,,0.0,宜蘭縣礁溪鄉踏踏三路,0.2年,['M'],['M'],0,710,25.4,0.0,0,17.38,2房2廳2衛,4,4,False,,[],2,False,False,https://sinyi.in/o/XS144990HB/0/3,0,2,,1,False,False,262,,,2房2廳2衛,False,False,宜蘭縣,Yilan-county,12,https://www.sinyi.com.tw/buy/list/Yilan-county/default-desc/12
,XS145090HB,鳳凰全新四房車庫別墅,24.6821069,121.8176533,['https://img.hbhousing.com.tw/pictures/A490/A490XS145090a.jpg'],https://img.hbhousing.com.tw/pictures/A490/A490XS145090a.jpg,,,,,0.0,宜蘭縣五結鄉傳藝路一段,0.8年,['D'],['D'],0,1288,45.1,26.87,0,42.15,4房2廳4衛,1-3,3,False,,[],4,False,False,https://sinyi.in/o/XS145090HB/0/3,0,2,,1,False,False,268,,,4房2廳4衛,False,False,宜蘭縣,Yilan-county,12,https://www.sinyi.com.tw/buy/list/Yilan-county/default-desc/12
,XS145277HB,冬山河大閘門出海口電梯夢幻民宿,24.6912127832,121.834305864,['https://img.hbhousing.com.tw/pictures/A829/A829XS145277a.jpg'],https://img.hbhousing.com.tw/pictures/A829/A829XS145277a.jpg,,,,,0.0,宜蘭縣五結鄉季水路,3.2年,['D'],['D'],0,5600,217.65,80.37,0,200.14,9房2廳9衛,1-4,4,False,,[],0,False,False,https://sinyi.in/o/XS145277HB/0/3,0,2,,1,False,False,268,,,9房2廳9衛,False,False,宜蘭縣,Yilan-county,12,https://www.sinyi.com.tw/buy/list/Yilan-county/default-desc/12
